jsonpcallback([{"lat": 38.512, "distance": 2837.8369592743265, "host": "dfw", "lng": -89.9, "name": "Belleville"}, {"lat": 35.403, "distance": 3698.484799302248, "host": "atl", "lng": -80.861, "name": "Huntersville"}, {"lat": 50.717, "distance": 8620.358503781312, "host": "lhr", "lng": -1.883, "name": "England"}, {"lat": 27.514, "distance": 4064.7529005038514, "host": "mia", "lng": -80.418, "name": "Fort Pierce"}, {"lat": 41.488, "distance": 3491.263291281998, "host": "ord", "lng": -81.672, "name": "Cleveland"}, {"lat": 51.416, "distance": 8591.494773084825, "host": "lhr", "lng": -1.33, "name": "Donnington"}, {"lat": 42.203, "distance": 4353.153831264175, "host": "ewr", "lng": -71.01, "name": "Braintree"}, {"lat": 40.708, "distance": 4140.034737446424, "host": "ewr", "lng": -74.013, "name": "New York"}, {"lat": 38.81, "distance": 1551.9466287485761, "host": "den", "lng": -104.709, "name": "Colorado Springs"}, {"lat": 51.317, "distance": 8637.801282924433, "host": "lhr", "lng": -0.533, "name": "England"}, {"lat": 38.964, "distance": 3879.002622003476, "host": "dca", "lng": -77.613, "name": "Aldie"}, {"lat": 33.096, "distance": 695.9391999528247, "host": "bur", "lng": -117.272, "name": "Carlsbad"}, {"lat": 37.786, "distance": 4.838814683524657, "host": "sjc", "lng": -122.437, "name": "San Francisco"}, {"lat": 49.45, "distance": 9177.746804319164, "host": "fra", "lng": 7.75, "name": "Kaiserslautern"}, {"lat": 22.717, "distance": 13046.184969059523, "host": "bom", "lng": 75.833, "name": "Pati"}, {"lat": 44.874, "distance": 2545.3275450172173, "host": "ord", "lng": -93.334, "name": "Minneapolis"}, {"lat": 40.254, "distance": 3367.1562275282945, "host": "ord", "lng": -83.369, "name": "Marysville"}, {"lat": 31.95, "distance": 11969.912856823306, "host": "cdg", "lng": 35.933, "name": "Amman"}, {"lat": 52.933, "distance": 8462.286944573942, "host": "lhr", "lng": -1.5, "name": "England"}, {"lat": 55.965, "distance": 8681.664060821717, "host": "arn", "lng": 9.756, "name": "\u00d8stbirk"}, {"lat": 30.857, "distance": 3234.845931763788, "host": "ord", "lng": -88.059, "name": "Satsuma"}, {"lat": 43.779, "distance": 9844.504479091607, "host": "mxp", "lng": 11.246, "name": "Firenze"}, {"lat": 41.574, "distance": 2759.6712740505286, "host": "ord", "lng": -90.458, "name": "Bettendorf"}, {"lat": 48.3, "distance": 9640.104737011221, "host": "vie", "lng": 16.35, "name": "Langenzersdorf"}, {"lat": 38.717, "distance": 9140.738191890834, "host": "mad", "lng": -9.133, "name": "Lisboa"}, {"lat": -41, "distance": 10853.804541914307, "host": "syd", "lng": 174, "name": "Ketu Bay"}, {"lat": 37.68, "distance": 11262.115021129473, "host": "fra", "lng": 32.338, "name": "Konya"}, {"lat": 0.983, "distance": 5969.5677806645745, "host": "ewr", "lng": -79.7, "name": "UNKNOWN"}, {"lat": -34.641, "distance": 10377.65852052976, "host": "gru", "lng": -58.564, "name": "UNKNOWN"}, {"lat": 33.622, "distance": 3437.490469147705, "host": "atl", "lng": -84.523, "name": "College Park"}, {"lat": 32.894, "distance": 724.869026732012, "host": "bur", "lng": -117.076, "name": "San Diego"}, {"lat": 52.15, "distance": 8669.766950107864, "host": "lhr", "lng": 1.6, "name": "England"}, {"lat": 38.254, "distance": 3199.3608880213287, "host": "bur", "lng": -85.759, "name": "Louisville"}, {"lat": 41.931, "distance": 2961.722234965994, "host": "ord", "lng": -88.009, "name": "Addison"}, {"lat": 51.4, "distance": 8639.027446738577, "host": "lhr", "lng": -0.367, "name": "Molesey"}, {"lat": 33.339, "distance": 12017.5640130669, "host": "fra", "lng": 44.394, "name": "Baghdad"}, {"lat": 45.847, "distance": 9851.742428130989, "host": "vie", "lng": 15.831, "name": "Ivanec Bistranski"}, {"lat": 41.295, "distance": 2942.382493187686, "host": "ord", "lng": -88.287, "name": "Coal City"}, {"lat": 50.179, "distance": 9164.110401022444, "host": "fra", "lng": 8.923, "name": "Bruchk\u00f6bel"}, {"lat": 28.667, "distance": 12374.553068404175, "host": "bom", "lng": 77.217, "name": "New Delhi"}, {"lat": 37.779, "distance": 18.5313257452006, "host": "sjc", "lng": -122.216, "name": "Oakland"}, {"lat": 38.393, "distance": 77.60373580740061, "host": "sjc", "lng": -122.751, "name": "Santa Rosa"}, {"lat": 22.433, "distance": 2588.3701734691745, "host": "dfw", "lng": -102, "name": "Estancia de \u00c1nimas"}, {"lat": 56.1, "distance": 9443.978142469212, "host": "arn", "lng": 38.133, "name": "Krasnoarmeysk"}, {"lat": 46.051, "distance": 9777.750887598988, "host": "vie", "lng": 14.505, "name": "Ljubljana"}, {"lat": 6.594, "distance": 12564.57844484613, "host": "lhr", "lng": 3.338, "name": "Lagos"}, {"lat": 30.22, "distance": 2366.5752139037895, "host": "dfw", "lng": -98.359, "name": "Johnson City"}, {"lat": 33.769, "distance": 602.5320091055694, "host": "bur", "lng": -117.88, "name": "Santa Ana"}, {"lat": 37.304, "distance": 56.746303478569246, "host": "sjc", "lng": -122.095, "name": "Cupertino"}, {"lat": 43.014, "distance": 4302.2954147568, "host": "ewr", "lng": -71.435, "name": "Manchester"}, {"lat": 42.031, "distance": 2977.63345602198, "host": "ord", "lng": -87.811, "name": "Niles"}, {"lat": 40.193, "distance": 4013.444195442068, "host": "ewr", "lng": -75.675, "name": "Pottstown"}, {"lat": 41.686, "distance": 4224.167158954555, "host": "ewr", "lng": -72.731, "name": "Newington"}, {"lat": 56.36, "distance": 8603.792731597721, "host": "arn", "lng": 8.616, "name": "Holstebro"}, {"lat": 54.617, "distance": 8325.544236085518, "host": "lhr", "lng": -1.567, "name": "England"}, {"lat": 3.119, "distance": 13605.909347557006, "host": "sin", "lng": 101.687, "name": "Kuala Lumpur"}, {"lat": 37.454, "distance": 3929.751745411356, "host": "dca", "lng": -77.478, "name": "Richmond"}, {"lat": 32.88, "distance": 2371.3171106458667, "host": "dfw", "lng": -96.94, "name": "Irving"}, {"lat": 49.278, "distance": 1282.5740611994925, "host": "sea", "lng": -123.091, "name": "Vancouver"}, {"lat": 42.287, "distance": 4294.256764347534, "host": "ewr", "lng": -71.715, "name": "Shrewsbury"}, {"lat": 41.156, "distance": 9558.313114899529, "host": "mad", "lng": 1.107, "name": "Reus"}, {"lat": 42.05, "distance": 4382.040045267781, "host": "ewr", "lng": -70.695, "name": "Duxbury"}, {"lat": 41.069, "distance": 2431.3906782382437, "host": "ord", "lng": -94.393, "name": "Creston"}, {"lat": 41.6, "distance": 4403.029592571425, "host": "ewr", "lng": -70.563, "name": "Falmouth"}, {"lat": 29.832, "distance": 2611.7630448082728, "host": "dfw", "lng": -95.735, "name": "Katy"}, {"lat": -22.164, "distance": 10589.816497482387, "host": "gru", "lng": -43.293, "name": "Rio de Janeiro"}, {"lat": 44.933, "distance": 3696.24456727954, "host": "ord", "lng": -78.733, "name": "Minden"}, {"lat": 32.03, "distance": 3793.391759771091, "host": "atl", "lng": -81.164, "name": "Savannah"}, {"lat": 47.215, "distance": 8909.029130226158, "host": "cdg", "lng": -1.722, "name": "Cou\u00ebron"}, {"lat": 34.185, "distance": 536.6773869731934, "host": "bur", "lng": -118.391, "name": "Los Angeles"}, {"lat": 14.209, "distance": 4052.8105671771546, "host": "mia", "lng": -90.975, "name": "Escuintla"}, {"lat": 54.611, "distance": 8120.921378888673, "host": "lhr", "lng": -5.963, "name": "Northern Ireland"}, {"lat": 50.641, "distance": 8977.085132108774, "host": "ams", "lng": 5.572, "name": "Li\u00e8ge"}, {"lat": -23.196, "distance": 10376.472474684813, "host": "gru", "lng": -46.876, "name": "S\u00e3o Paulo"}, {"lat": 51.667, "distance": 8573.662263213593, "host": "lhr", "lng": -1.283, "name": "England"}, {"lat": 48.12, "distance": 9462.871703985646, "host": "fra", "lng": 11.573, "name": "M\u00fcnchen"}, {"lat": -20.532, "distance": 10430.954436181622, "host": "gru", "lng": -43.859, "name": "Minas Gerais"}, {"lat": 41.921, "distance": 2987.2109951242173, "host": "ord", "lng": -87.702, "name": "Chicago"}, {"lat": 28.667, "distance": 1432.443656876641, "host": "bur", "lng": -111.461, "name": "Sonora"}, {"lat": 43.145, "distance": 3668.9134007077373, "host": "ord", "lng": -79.263, "name": "St. Catharines"}, {"lat": -34.677, "distance": 10380.653965032914, "host": "gru", "lng": -58.561, "name": "San Justo"}, {"lat": 32.332, "distance": 1202.626093584735, "host": "bur", "lng": -110.985, "name": "Tucson"}, {"lat": 35.854, "distance": 3749.8811450626613, "host": "dca", "lng": -80.108, "name": "Thomasville"}, {"lat": 41.315, "distance": 3512.7903119116672, "host": "dca", "lng": -81.441, "name": "Twinsburg"}, {"lat": 18, "distance": 4935.062509225975, "host": "mia", "lng": -76.8, "name": "Kingston"}, {"lat": 51.35, "distance": 8659.00195565318, "host": "lhr", "lng": -0.033, "name": "England"}, {"lat": 49.161, "distance": 1274.6366314371162, "host": "sea", "lng": -123.983, "name": "Nanaimo"}, {"lat": 39.533, "distance": 3301.0343545674737, "host": "dca", "lng": -84.29, "name": "Franklin"}, {"lat": -16.253, "distance": 10083.522564724739, "host": "gru", "lng": -44.457, "name": "Minas Gerais"}, {"lat": 53, "distance": 9553.830330010354, "host": "fra", "lng": 28, "name": "Minskaja voblas\u0107"}, {"lat": 57.717, "distance": 8636.001806218235, "host": "arn", "lng": 12.917, "name": "V\u00e4stra G\u00f6talands l\u00e4n"}, {"lat": 36.837, "distance": 4061.9183996857932, "host": "dca", "lng": -76.146, "name": "Virginia Beach"}, {"lat": 51.688, "distance": 8427.229308419257, "host": "lhr", "lng": -4.244, "name": "Cymru"}, {"lat": 40.936, "distance": 4126.316846072877, "host": "ewr", "lng": -74.118, "name": "Fair Lawn"}, {"lat": 42.51, "distance": 3375.859863176366, "host": "ord", "lng": -82.936, "name": "Roseville"}, {"lat": 43.318, "distance": 2929.676762208519, "host": "ord", "lng": -88.366, "name": "Hartford"}, {"lat": 48.99, "distance": 8936.807056369067, "host": "cdg", "lng": 1.708, "name": "Mantes-la-Jolie"}, {"lat": 40.723, "distance": 2724.739543864867, "host": "ord", "lng": -90.925, "name": "Stronghurst"}, {"lat": 40.334, "distance": 4083.91143089001, "host": "ewr", "lng": -74.791, "name": "Pennington"}, {"lat": 40.393, "distance": 965.7048447079964, "host": "bur", "lng": -111.784, "name": "American Fork"}, {"lat": 31.511, "distance": 2399.7980992098455, "host": "dfw", "lng": -97.265, "name": "Waco"}, {"lat": 40.698, "distance": 4150.604764168799, "host": "ewr", "lng": -73.888, "name": "New York"}, {"lat": 32.1, "distance": 1240.077422790875, "host": "bur", "lng": -110.689, "name": "Tucson"}, {"lat": 52.382, "distance": 8797.870354047414, "host": "ams", "lng": 4.899, "name": "Amsterdam"}, {"lat": 40.674, "distance": 4183.9160688507, "host": "ewr", "lng": -73.492, "name": "Seaford"}, {"lat": 22.567, "distance": 13138.905474106452, "host": "bom", "lng": 72.933, "name": "Anand"}, {"lat": 34.056, "distance": 3434.929553232213, "host": "atl", "lng": -84.38, "name": "Roswell"}, {"lat": 36.296, "distance": 314.6856372124581, "host": "bur", "lng": -119.381, "name": "Visalia"}, {"lat": 39, "distance": 3885.246868356009, "host": "dca", "lng": -77.529, "name": "Ashburn"}, {"lat": 38.931, "distance": 3902.1381369104556, "host": "dca", "lng": -77.349, "name": "Reston"}, {"lat": 48.858, "distance": 8978.386933215195, "host": "fra", "lng": 2.339, "name": "Paris"}, {"lat": -9.75, "distance": 10299.850071100278, "host": "gru", "lng": -36.66, "name": "Alagoas"}, {"lat": 53.522, "distance": 1884.1992637581789, "host": "sea", "lng": -113.459, "name": "Edmonton"}, {"lat": 51.5, "distance": 8637.313031944233, "host": "lhr", "lng": -0.233, "name": "UNKNOWN"}, {"lat": 40.61, "distance": 959.3175882887596, "host": "bur", "lng": -111.939, "name": "West Jordan"}, {"lat": 38.607, "distance": 127.39353189432236, "host": "sjc", "lng": -121.463, "name": "Sacramento"}, {"lat": -34.483, "distance": 10368.451195921802, "host": "gru", "lng": -58.517, "name": "San Isidro"}, {"lat": 49.281, "distance": 1282.742098119158, "host": "sea", "lng": -123.04, "name": "Vancouver"}, {"lat": 51.467, "distance": 8637.60717585518, "host": "lhr", "lng": -0.283, "name": "England"}, {"lat": 8.629, "distance": 6137.60093530398, "host": "mia", "lng": -70.207, "name": "Barinas"}, {"lat": 38.856, "distance": 2421.5038395998918, "host": "ord", "lng": -94.668, "name": "Overland Park"}, {"lat": 39.948, "distance": 4049.8305953953286, "host": "ewr", "lng": -75.306, "name": "Upper Darby"}, {"lat": 52.85, "distance": 8411.177553009536, "host": "lhr", "lng": -2.717, "name": "Wem"}, {"lat": 43.78, "distance": 3653.223151588355, "host": "yyz", "lng": -79.381, "name": "Toronto"}, {"lat": -34.901, "distance": 12984.326265156165, "host": "syd", "lng": 138.57, "name": "Brompton"}, {"lat": 26.917, "distance": 12599.055006239321, "host": "bom", "lng": 75.817, "name": "Jaipur"}, {"lat": 41.697, "distance": 3527.841305329034, "host": "ord", "lng": -81.197, "name": "Painesville"}, {"lat": 28.094, "distance": 9485.734644238117, "host": "mad", "lng": -15.459, "name": "Canarias"}, {"lat": -3.996, "distance": 9728.402388032287, "host": "gru", "lng": -38.73, "name": "Cear\u00e1"}, {"lat": 39.075, "distance": 1542.8724580352332, "host": "den", "lng": -104.81, "name": "Monument"}, {"lat": 45.525, "distance": 4093.566639676636, "host": "yyz", "lng": -73.595, "name": "Montr\u00e9al"}, {"lat": 34.509, "distance": 535.1380693160665, "host": "bur", "lng": -118.011, "name": "Littlerock"}, {"lat": 28.939, "distance": 2653.059084574505, "host": "dfw", "lng": -95.789, "name": "Bay City"}, {"lat": 53.117, "distance": 9355.499723050534, "host": "fra", "lng": 21.523, "name": "Antonie"}, {"lat": 37.956, "distance": 3052.5078850955397, "host": "ord", "lng": -87.532, "name": "Evansville"}, {"lat": 33, "distance": 12134.628633808003, "host": "ams", "lng": 65, "name": "Helmand"}, {"lat": 47.867, "distance": 9299.31600275956, "host": "cdg", "lng": 7.352, "name": "Ensisheim"}, {"lat": 42.94, "distance": 3615.783442798005, "host": "ord", "lng": -79.945, "name": "Cayuga"}, {"lat": 44.968, "distance": 2566.000716217935, "host": "ord", "lng": -93.088, "name": "Saint Paul"}, {"lat": 49.984, "distance": 9149.272018942089, "host": "fra", "lng": 8.177, "name": "Mainz"}, {"lat": 37.867, "distance": 19.90622380381021, "host": "sjc", "lng": -122.257, "name": "Berkeley"}, {"lat": 39.988, "distance": 4056.003818391035, "host": "ewr", "lng": -75.221, "name": "Philadelphia"}, {"lat": 50.137, "distance": 9560.984071217406, "host": "fra", "lng": 18.966, "name": "Tychy"}, {"lat": 29.465, "distance": 2379.115439599335, "host": "dfw", "lng": -98.673, "name": "San Antonio"}, {"lat": 53.367, "distance": 1860.8445292406766, "host": "sea", "lng": -113.735, "name": "Devon"}, {"lat": 26.467, "distance": 12511.439997297139, "host": "bom", "lng": 80.35, "name": "Kanpur"}, {"lat": 54.583, "distance": 8124.45228178062, "host": "lhr", "lng": -5.933, "name": "Northern Ireland"}, {"lat": 43.725, "distance": 3665.754027963061, "host": "yyz", "lng": -79.231, "name": "Toronto"}, {"lat": 50.86, "distance": 9022.587657154983, "host": "fra", "lng": 7.036, "name": "K\u00f6ln"}, {"lat": 41.52, "distance": 2947.9791313726746, "host": "ord", "lng": -88.202, "name": "Shorewood"}, {"lat": 19.4, "distance": 3045.485454028272, "host": "dfw", "lng": -99.017, "name": "Nezahualc\u00f3yotl"}, {"lat": 35.484, "distance": 3701.762922860104, "host": "atl", "lng": -80.794, "name": "Davidson"}, {"lat": 29.11, "distance": 3937.988060381628, "host": "mia", "lng": -80.973, "name": "Port Orange"}, {"lat": 36.728, "distance": 2348.2532508442755, "host": "dfw", "lng": -95.9, "name": "Bartlesville"}, {"lat": 34.191, "distance": 513.9850918201456, "host": "bur", "lng": -118.764, "name": "Oak Park"}, {"lat": 45.355, "distance": 3940.7583712805217, "host": "ewr", "lng": -75.577, "name": "Ottawa"}, {"lat": 44.609, "distance": 3643.8527299403368, "host": "yyz", "lng": -79.421, "name": "Orillia"}, {"lat": 43.187, "distance": 4341.032357725174, "host": "ewr", "lng": -70.91, "name": "Dover"}, {"lat": 43.472, "distance": 3562.173200369084, "host": "ord", "lng": -80.545, "name": "Waterloo"}, {"lat": 37.796, "distance": 5.75668751566361, "host": "sjc", "lng": -122.421, "name": "San Francisco"}, {"lat": 49.05, "distance": 9013.01030797982, "host": "cdg", "lng": 3.4, "name": "Ch\u00e2teau-Thierry"}, {"lat": 41.135, "distance": 3524.932349428223, "host": "ord", "lng": -81.326, "name": "Kent"}, {"lat": 63.2, "distance": 8290.348681136138, "host": "arn", "lng": 18.5, "name": "UNKNOWN"}, {"lat": 53.626, "distance": 8368.148567394212, "host": "lhr", "lng": -2.338, "name": "Greenmount"}, {"lat": 53.622, "distance": 8903.766098426895, "host": "fra", "lng": 10.083, "name": "Hamburg"}, {"lat": 25.49, "distance": 4170.889014409209, "host": "mia", "lng": -80.419, "name": "Homestead"}, {"lat": -29, "distance": 16772.77000682832, "host": "ams", "lng": 24, "name": "Northern Cape"}, {"lat": 39.815, "distance": 3192.4942221618385, "host": "ord", "lng": -85.515, "name": "Knightstown"}, {"lat": 44.433, "distance": 10370.207519213964, "host": "fra", "lng": 26.1, "name": "Bucure\u0219ti"}, {"lat": 41.488, "distance": 3011.530808331637, "host": "ord", "lng": -87.442, "name": "Schererville"}, {"lat": 39.965, "distance": 3391.3052939078816, "host": "ord", "lng": -83.138, "name": "Columbus"}, {"lat": 5.338, "distance": 6197.628648581672, "host": "mia", "lng": -72.396, "name": "Yopal"}, {"lat": 40.711, "distance": 4145.429579673304, "host": "ewr", "lng": -73.947, "name": "New York"}, {"lat": 40.81, "distance": 4233.906815809733, "host": "ewr", "lng": -72.849, "name": "Mastic"}, {"lat": 31.15, "distance": 3455.4969054504963, "host": "atl", "lng": -85.411, "name": "Dothan"}, {"lat": 33.788, "distance": 3446.9341051244305, "host": "atl", "lng": -84.349, "name": "Atlanta"}, {"lat": 49.651, "distance": 1529.2600609963324, "host": "sea", "lng": -112.835, "name": "Lethbridge"}, {"lat": 51.445, "distance": 8637.149354602223, "host": "lhr", "lng": -0.33, "name": "England"}, {"lat": 46.357, "distance": 4949.737819671719, "host": "ewr", "lng": -62.249, "name": "Souris"}, {"lat": -1.366, "distance": 8710.601544612857, "host": "gru", "lng": -48.342, "name": "Par\u00e1"}, {"lat": 51.992, "distance": 8806.642383508572, "host": "ams", "lng": 4.342, "name": "Delft"}, {"lat": 50.083, "distance": 9175.23314868153, "host": "fra", "lng": 8.983, "name": "Gro\u00dfkrotzenburg"}, {"lat": 60.661, "distance": 3234.519583642046, "host": "ord", "lng": -150.906, "name": "Kenai"}, {"lat": 20.55, "distance": 3070.3778101145776, "host": "atl", "lng": -97.45, "name": "Poza Rica"}, {"lat": 35.18, "distance": 8528.515696569764, "host": "nrt", "lng": 136.907, "name": "Aichi Prefecture"}, {"lat": 45.617, "distance": 4077.989272263652, "host": "yyz", "lng": -73.783, "name": "Laval"}, {"lat": 50.26, "distance": 1413.010060396152, "host": "sea", "lng": -119.277, "name": "Vernon"}, {"lat": 42.363, "distance": 4343.745553356113, "host": "atl", "lng": -71.084, "name": "Cambridge"}, {"lat": 41.344, "distance": 9593.768468433578, "host": "mad", "lng": 2.037, "name": "Sant Boi de Llobregat"}, {"lat": 45.347, "distance": 9729.325391640074, "host": "mxp", "lng": 11.868, "name": "Albignasego"}, {"lat": -26.767, "distance": 10493.457846293812, "host": "gru", "lng": -48.65, "name": "Santa Catarina"}, {"lat": 48.367, "distance": 9628.600790479419, "host": "vie", "lng": 16.217, "name": "Stockerau"}, {"lat": 43.674, "distance": 3652.315232384036, "host": "ord", "lng": -79.404, "name": "Toronto"}, {"lat": 29.638, "distance": 3786.4462363592647, "host": "atl", "lng": -82.414, "name": "Gainesville"}, {"lat": 39.728, "distance": 3146.7803712824116, "host": "ord", "lng": -86.069, "name": "Indianapolis"}, {"lat": 40.633, "distance": 4143.04807870315, "host": "ewr", "lng": -73.997, "name": "New York"}, {"lat": 43.147, "distance": 4351.980292420519, "host": "ewr", "lng": -70.783, "name": "Eliot"}, {"lat": -25.44, "distance": 10366.860455356911, "host": "gru", "lng": -49.062, "name": "Paran\u00e1"}, {"lat": 9.933, "distance": 4915.938201355532, "host": "mia", "lng": -84.083, "name": "San Jos\u00e9"}, {"lat": 41.929, "distance": 2992.9680980084063, "host": "dfw", "lng": -87.632, "name": "Chicago"}, {"lat": 51.901, "distance": 8988.426880183615, "host": "fra", "lng": 8.384, "name": "G\u00fctersloh"}, {"lat": 10.587, "distance": 4759.190282301703, "host": "mia", "lng": -85.45, "name": "Provincia de Guanacaste"}, {"lat": 36.819, "distance": 257.47487450295387, "host": "bur", "lng": -119.759, "name": "Fresno"}, {"lat": 51.8, "distance": 8499.395442705976, "host": "lhr", "lng": -2.6, "name": "Broadwell"}, {"lat": 45.564, "distance": 9728.427691454614, "host": "mxp", "lng": 12.299, "name": "Marcon-Gaggio-Colmello"}, {"lat": 44, "distance": 10115.846342171464, "host": "vie", "lng": 18, "name": "Federacija Bosne i Hercegovine"}, {"lat": 38.481, "distance": 2646.0139711864867, "host": "ord", "lng": -92.127, "name": "Jefferson City"}, {"lat": 40.064, "distance": 4066.01559734502, "host": "ewr", "lng": -75.08, "name": "Philadelphia"}, {"lat": 33.524, "distance": 3654.498116420536, "host": "atl", "lng": -82.093, "name": "Martinez"}, {"lat": 39.535, "distance": 1530.9347095792848, "host": "den", "lng": -104.958, "name": "Littleton"}, {"lat": 39.378, "distance": 4087.1594902896686, "host": "ewr", "lng": -75.024, "name": "Millville"}, {"lat": 32.826, "distance": 3276.9857432434706, "host": "atl", "lng": -86.676, "name": "Clanton"}, {"lat": 39.732, "distance": 1529.5913441648213, "host": "den", "lng": -104.984, "name": "Denver"}, {"lat": 8.683, "distance": 12786.694910727147, "host": "lhr", "lng": 8.583, "name": "Nasarawa"}, {"lat": 51.55, "distance": 8641.947377683913, "host": "lhr", "lng": -0.05, "name": "England"}, {"lat": 39.727, "distance": 2407.9917760139447, "host": "ord", "lng": -94.732, "name": "Saint Joseph"}, {"lat": 32.035, "distance": 11930.098139086114, "host": "lhr", "lng": 34.886, "name": "Yehud"}, {"lat": 33.712, "distance": 611.5671375709784, "host": "bur", "lng": -117.81, "name": "Tustin"}, {"lat": 9.181, "distance": 12643.314421464314, "host": "lhr", "lng": 7.179, "name": "Kwamba"}, {"lat": 17.55, "distance": 3642.0000456922007, "host": "bur", "lng": -92.95, "name": "Teapa"}, {"lat": 44.9, "distance": 9767.995711285466, "host": "mxp", "lng": 11.817, "name": "Copparo"}, {"lat": 54.9, "distance": 8305.419036179102, "host": "lhr", "lng": -1.517, "name": "England"}, {"lat": 35.395, "distance": 403.02599773768054, "host": "sjc", "lng": -118.987, "name": "Bakersfield"}, {"lat": 59.35, "distance": 8641.499865802716, "host": "arn", "lng": 17.917, "name": "Stockholms l\u00e4n"}, {"lat": 27.948, "distance": 3910.9101796444147, "host": "mia", "lng": -81.92, "name": "Lakeland"}, {"lat": 18.617, "distance": 5598.860498759173, "host": "mia", "lng": -68.7, "name": "Hig\u00fcey"}, {"lat": 18.25, "distance": 5814.340054476084, "host": "mia", "lng": -66.5, "name": "UNKNOWN"}, {"lat": 45.016, "distance": 2536.7767658862554, "host": "ord", "lng": -93.472, "name": "Plymouth"}, {"lat": 27.635, "distance": 2596.6987012674967, "host": "dfw", "lng": -97.313, "name": "Corpus Christi"}, {"lat": 12.983, "distance": 14016.06214721896, "host": "bom", "lng": 77.583, "name": "Bengaluru"}, {"lat": 40.238, "distance": 3908.2850839835255, "host": "dca", "lng": -76.923, "name": "Camp Hill"}, {"lat": 45.8, "distance": 895.9284640482981, "host": "sea", "lng": -122.974, "name": "Scappoose"}, {"lat": 43.9, "distance": 3698.7331481377905, "host": "yyz", "lng": -78.8, "name": "Courtice"}, {"lat": -23.209, "distance": 10381.328804534474, "host": "gru", "lng": -46.826, "name": "S\u00e3o Paulo"}, {"lat": 52.767, "distance": 8473.143639634889, "host": "lhr", "lng": -1.55, "name": "Church Gresley"}, {"lat": -23.573, "distance": 10421.546928159049, "host": "gru", "lng": -46.642, "name": "S\u00e3o Paulo"}, {"lat": -3.113, "distance": 7843.704219354647, "host": "gru", "lng": -60.025, "name": "Amazonas"}, {"lat": 42.555, "distance": 3377.030828455158, "host": "ord", "lng": -82.917, "name": "Clinton Township"}, {"lat": 45.08, "distance": 9831.540213950266, "host": "vie", "lng": 13.64, "name": "Rovinj"}, {"lat": 34.151, "distance": 540.9695746400434, "host": "bur", "lng": -118.367, "name": "Los Angeles"}, {"lat": 35.171, "distance": 3711.9090796449364, "host": "dca", "lng": -80.792, "name": "Charlotte"}, {"lat": 43.64, "distance": 3652.944846677157, "host": "yyz", "lng": -79.4, "name": "Toronto"}, {"lat": 33.48, "distance": 3662.7691292981376, "host": "atl", "lng": -82.017, "name": "Augusta"}, {"lat": 39.983, "distance": 3124.5149970487005, "host": "ord", "lng": -86.288, "name": "Zionsville"}, {"lat": 38.097, "distance": 3203.4574652079473, "host": "ord", "lng": -85.749, "name": "Louisville"}, {"lat": 32.934, "distance": 2341.865649852969, "host": "dfw", "lng": -97.252, "name": "Keller"}, {"lat": 47.158, "distance": 9326.981691697643, "host": "cdg", "lng": 6.606, "name": "Consolation-Maisonnettes"}, {"lat": 10.367, "distance": 12639.134783489244, "host": "nrt", "lng": 106.667, "name": "Ti\u1ec1n Giang"}, {"lat": 41.353, "distance": 4217.163425822298, "host": "dca", "lng": -72.904, "name": "Hamden"}, {"lat": 40.681, "distance": 4146.1874177211785, "host": "ewr", "lng": -73.946, "name": "New York"}, {"lat": 51.217, "distance": 8875.963140085976, "host": "lhr", "lng": 4.417, "name": "Antwerpen"}, {"lat": 45.451, "distance": 9166.60432392666, "host": "fra", "lng": 0.452, "name": "Mareuil"}, {"lat": 52.978, "distance": 8857.45637842722, "host": "ams", "lng": 7.515, "name": "Surwold"}, {"lat": 35.685, "distance": 8287.174290361247, "host": "nrt", "lng": 139.751, "name": "Chiyoda"}, {"lat": 25.287, "distance": 12998.623719834835, "host": "mxp", "lng": 51.533, "name": "Doha"}, {"lat": 55.23, "distance": 8822.160968163571, "host": "arn", "lng": 11.761, "name": "N\u00e6stved"}, {"lat": 20.627, "distance": 3892.6432807828874, "host": "atl", "lng": -87.08, "name": "Playa del Carmen"}, {"lat": 63.828, "distance": 8274.501793147796, "host": "arn", "lng": 20.26, "name": "V\u00e4sterbottens l\u00e4n"}, {"lat": 40.777, "distance": 4141.140365726873, "host": "ewr", "lng": -73.981, "name": "New York"}, {"lat": 33, "distance": 12047.40402154355, "host": "fra", "lng": 44, "name": "Al Anbar Governorate"}, {"lat": 19.647, "distance": 3009.0290865985116, "host": "bur", "lng": -99.247, "name": "Cuautitl\u00e1n Izcalli"}, {"lat": 45.617, "distance": 4080.5520424974943, "host": "ewr", "lng": -73.75, "name": "Laval"}, {"lat": 50.951, "distance": 1599.85105509183, "host": "sea", "lng": -114.359, "name": "Priddis"}, {"lat": 41.947, "distance": 2983.347214939863, "host": "ord", "lng": -87.747, "name": "Chicago"}, {"lat": 45.185, "distance": 2511.000696067075, "host": "ord", "lng": -93.84, "name": "Buffalo"}, {"lat": -34.505, "distance": 10371.93051559374, "host": "gru", "lng": -58.49, "name": "La Lucila"}, {"lat": 39.491, "distance": 296.62284770308236, "host": "sjc", "lng": -119.844, "name": "Reno"}, {"lat": 41.976, "distance": 2986.925388624554, "host": "ord", "lng": -87.702, "name": "Chicago"}, {"lat": 35.145, "distance": 1441.6957545568941, "host": "den", "lng": -106.645, "name": "Albuquerque"}, {"lat": 32.818, "distance": 724.0324052215738, "host": "bur", "lng": -117.197, "name": "San Diego"}, {"lat": 40.424, "distance": 4133.050537217891, "host": "ewr", "lng": -74.175, "name": "Hazlet"}, {"lat": 19.711, "distance": 3799.20847107259, "host": "bur", "lng": -155.874, "name": "Holualoa"}, {"lat": 62.853, "distance": 8538.471355064896, "host": "arn", "lng": 27.647, "name": "Kuopio"}, {"lat": 53.55, "distance": 8414.012239242722, "host": "lhr", "lng": -1.483, "name": "England"}, {"lat": 32.79, "distance": 9138.980428741832, "host": "nrt", "lng": 130.742, "name": "Kumamoto"}, {"lat": 35, "distance": 11701.752314559031, "host": "ams", "lng": 38, "name": "Hama Governorate"}, {"lat": 41.65, "distance": 10626.134690953782, "host": "fra", "lng": 25.367, "name": "Kardzhali"}, {"lat": -36.85, "distance": 10483.064452761791, "host": "syd", "lng": 174.765, "name": "Auckland"}, {"lat": 39.295, "distance": 3954.6818598535137, "host": "dca", "lng": -76.623, "name": "Baltimore"}, {"lat": 29.484, "distance": 3901.2248545009124, "host": "mia", "lng": -81.192, "name": "Palm Coast"}, {"lat": 57.117, "distance": 8537.161245664009, "host": "arn", "lng": 8.617, "name": "Hanstholm"}, {"lat": 40.372, "distance": 3090.34432429794, "host": "ord", "lng": -86.632, "name": "Indiana"}, {"lat": 47.634, "distance": 1098.653722876826, "host": "sea", "lng": -122.342, "name": "Seattle"}, {"lat": 52.153, "distance": 9030.548809607359, "host": "ams", "lng": 9.956, "name": "Hildesheim"}, {"lat": 59.95, "distance": 8360.96855798154, "host": "arn", "lng": 10.75, "name": "Oslo"}, {"lat": 33.872, "distance": 11754.887932999989, "host": "mxp", "lng": 35.51, "name": "Bayrut"}, {"lat": -16.254, "distance": 9798.33443727885, "host": "gru", "lng": -47.924, "name": "Goi\u00e1s"}, {"lat": 43.541, "distance": 9903.459833697963, "host": "mxp", "lng": 12.058, "name": "Anghiari"}, {"lat": 33.776, "distance": 3443.0484951712624, "host": "atl", "lng": -84.398, "name": "Atlanta"}, {"lat": 41.759, "distance": 2941.6073750311893, "host": "ord", "lng": -88.262, "name": "Aurora"}, {"lat": 39.484, "distance": 3152.3318963420375, "host": "atl", "lng": -86.048, "name": "Franklin"}, {"lat": 53.386, "distance": 8390.69631922841, "host": "lhr", "lng": -2.26, "name": "Wythenshawe"}, {"lat": 34.135, "distance": 549.9665039604596, "host": "sjc", "lng": -118.242, "name": "Glendale"}, {"lat": 28.217, "distance": 1911.4579172459928, "host": "dfw", "lng": -105.317, "name": "Chihuahua"}, {"lat": 47.293, "distance": 9239.486257626357, "host": "cdg", "lng": 5.005, "name": "Chen\u00f4ve"}, {"lat": 40.482, "distance": 9357.869012930483, "host": "mad", "lng": -3.36, "name": "Alcal\u00e1 de Henares"}, {"lat": 41.946, "distance": 2977.8853910880193, "host": "ord", "lng": -87.813, "name": "Chicago"}, {"lat": 43.985, "distance": 2671.6311799719683, "host": "ord", "lng": -91.606, "name": "Winona"}, {"lat": 37.892, "distance": 9478.287405375751, "host": "mad", "lng": -4.773, "name": "C\u00f3rdoba"}, {"lat": 43.196, "distance": 3672.1724436226978, "host": "yyz", "lng": -79.216, "name": "St. Catharines"}, {"lat": -29.917, "distance": 17417.291113059684, "host": "jnb", "lng": 30.9, "name": "Chatsworth"}, {"lat": 39.007, "distance": 2311.590974200374, "host": "dfw", "lng": -95.923, "name": "Topeka"}, {"lat": 42.966, "distance": 4339.119326100056, "host": "ewr", "lng": -70.988, "name": "Exeter"}, {"lat": 33.509, "distance": 1047.028811227344, "host": "bur", "lng": -112.082, "name": "Phoenix"}, {"lat": 19.317, "distance": 3112.507813194664, "host": "bur", "lng": -98.183, "name": "Chiautempan"}, {"lat": 40.889, "distance": 4136.100002967149, "host": "ewr", "lng": -74.012, "name": "Teaneck"}, {"lat": 34.027, "distance": 2671.513433229487, "host": "dfw", "lng": -93.064, "name": "Arkadelphia"}, {"lat": 0.383, "distance": 13530.128727665562, "host": "cdg", "lng": 9.45, "name": "Libreville"}, {"lat": 51.067, "distance": 8871.400639501682, "host": "ams", "lng": 4.033, "name": "Zele"}, {"lat": 35.959, "distance": 3186.4643415111423, "host": "ord", "lng": -86.542, "name": "Smyrna"}, {"lat": 34.049, "distance": 545.0300374972055, "host": "bur", "lng": -118.442, "name": "Los Angeles"}, {"lat": 40.733, "distance": 3295.0169051039447, "host": "ord", "lng": -84.145, "name": "Lima"}, {"lat": 51.883, "distance": 8597.585022829677, "host": "lhr", "lng": -0.417, "name": "England"}, {"lat": 61.25, "distance": 8054.052440510553, "host": "arn", "lng": 5.1, "name": "Sogn og Fjordane"}, {"lat": 40.721, "distance": 4140.405564506111, "host": "ewr", "lng": -74.005, "name": "New York"}, {"lat": 33.746, "distance": 607.7661231551469, "host": "bur", "lng": -117.826, "name": "Tustin"}, {"lat": 19.715, "distance": 2865.2128391618294, "host": "dfw", "lng": -101.206, "name": "Morelia"}, {"lat": 48.933, "distance": 8973.457565572166, "host": "cdg", "lng": 2.367, "name": "Saint-Denis"}, {"lat": 30.323, "distance": 12176.008134062924, "host": "bom", "lng": 78.032, "name": "Dehradun"}, {"lat": 39.782, "distance": 1363.86775341564, "host": "den", "lng": -106.926, "name": "Gypsum"}, {"lat": 41.892, "distance": 10075.871983054134, "host": "mxp", "lng": 12.511, "name": "Roma"}, {"lat": 37.748, "distance": 0.6584514459845685, "host": "sjc", "lng": -122.416, "name": "San Francisco"}, {"lat": 37.581, "distance": 3931.606598125315, "host": "atl", "lng": -77.415, "name": "Richmond"}, {"lat": 4.5, "distance": 13554.683592916215, "host": "sin", "lng": 100.767, "name": "Beruas"}, {"lat": 47.933, "distance": 9850.327105301523, "host": "vie", "lng": 21.083, "name": "Tisza\u00fajv\u00e1ros"}, {"lat": 44.937, "distance": 2555.0529579805966, "host": "ord", "lng": -93.222, "name": "Minneapolis"}, {"lat": 45.045, "distance": 9560.417617910693, "host": "mxp", "lng": 7.614, "name": "Gerbido"}, {"lat": 38.45, "distance": 3956.9101153244474, "host": "dca", "lng": -76.845, "name": "Mechanicsville"}, {"lat": 43.877, "distance": 3661.3668969851947, "host": "yyz", "lng": -79.269, "name": "Markham"}, {"lat": 39.628, "distance": 1546.3268154107586, "host": "den", "lng": -104.783, "name": "Aurora"}, {"lat": 38.188, "distance": 3193.9952261995445, "host": "dca", "lng": -85.837, "name": "Louisville"}, {"lat": 35.415, "distance": 2247.794003295875, "host": "dfw", "lng": -97.397, "name": "Oklahoma City"}, {"lat": 59.274, "distance": 8566.59882772301, "host": "arn", "lng": 15.207, "name": "\u00d6rebro l\u00e4n"}, {"lat": 45.24, "distance": 10031.848939522473, "host": "vie", "lng": 18.896, "name": "UNKNOWN"}, {"lat": 48.067, "distance": 5592.38863969952, "host": "ewr", "lng": -52.933, "name": "UNKNOWN"}, {"lat": 45.544, "distance": 4090.3310877378294, "host": "yyz", "lng": -73.634, "name": "Montr\u00e9al"}, {"lat": 43.632, "distance": 3655.269769254899, "host": "ord", "lng": -79.372, "name": "Toronto"}, {"lat": 45.832, "distance": 9566.313519836498, "host": "mxp", "lng": 9.233, "name": "Castelmarte"}, {"lat": 61.206, "distance": 3228.7634278558776, "host": "ord", "lng": -149.823, "name": "Anchorage"}, {"lat": 29.808, "distance": 3879.6487190764424, "host": "mia", "lng": -81.268, "name": "St. Augustine"}, {"lat": 40.528, "distance": 2890.426577043598, "host": "ord", "lng": -88.98, "name": "Normal"}, {"lat": 41.998, "distance": 4318.307469124309, "host": "ewr", "lng": -71.494, "name": "Woonsocket"}, {"lat": 30.462, "distance": 3326.2927315270867, "host": "dfw", "lng": -87.217, "name": "Pensacola"}, {"lat": -22.875, "distance": 10640.102433284426, "host": "gru", "lng": -43.278, "name": "Rio de Janeiro"}, {"lat": 46, "distance": 9640.780386814173, "host": "mxp", "lng": 11.217, "name": "Trentino-Alto Adige"}, {"lat": 33.373, "distance": 3417.2913516009303, "host": "dca", "lng": -84.854, "name": "Newnan"}, {"lat": 34.203, "distance": 517.1453000099216, "host": "bur", "lng": -118.692, "name": "Bell Canyon"}, {"lat": 53.717, "distance": 8453.551036927867, "host": "lhr", "lng": -0.333, "name": "England"}, {"lat": 44.15, "distance": 3611.4845122445945, "host": "ord", "lng": -79.866, "name": "New Tecumseth"}, {"lat": 45.87, "distance": 930.5272747213179, "host": "sea", "lng": -119.688, "name": "Paterson"}, {"lat": 42.317, "distance": 3380.543415291434, "host": "yyz", "lng": -82.9, "name": "Windsor"}, {"lat": 20.667, "distance": 2640.3523680882827, "host": "bur", "lng": -103.333, "name": "Guadalajara"}, {"lat": 44.4, "distance": 3625.7288867787643, "host": "yyz", "lng": -79.666, "name": "Barrie"}, {"lat": 39.843, "distance": 4038.8966348159756, "host": "ewr", "lng": -75.466, "name": "Upper Chichester"}, {"lat": 37.153, "distance": 4018.201919563109, "host": "dca", "lng": -76.546, "name": "Newport News"}, {"lat": -23.517, "distance": 10398.650155742333, "host": "gru", "lng": -46.883, "name": "S\u00e3o Paulo"}, {"lat": 51.463, "distance": 8967.189607478054, "host": "ams", "lng": 6.974, "name": "Essen"}, {"lat": 51.617, "distance": 8634.138391314074, "host": "lhr", "lng": -0.1, "name": "England"}, {"lat": 61.081, "distance": 3214.958962895174, "host": "ord", "lng": -149.709, "name": "Anchorage"}, {"lat": 34.471, "distance": 564.5014325983053, "host": "den", "lng": -117.62, "name": "Pinon Hills"}, {"lat": -27.45, "distance": 9788.556936665713, "host": "gru", "lng": -58.983, "name": "Resistencia"}, {"lat": 7.436, "distance": 12658.547260345349, "host": "lhr", "lng": 5.459, "name": "Emure Ekiti"}, {"lat": 37.654, "distance": 50.966175895577486, "host": "sjc", "lng": -121.855, "name": "Pleasanton"}, {"lat": 48.841, "distance": 8997.302698864309, "host": "cdg", "lng": 2.702, "name": "Bussy-Saint-Georges"}, {"lat": 40.739, "distance": 793.2880912264567, "host": "den", "lng": -114.073, "name": "West Wendover"}, {"lat": 45.733, "distance": 9868.079691995406, "host": "vie", "lng": 15.967, "name": "UNKNOWN"}, {"lat": 52.334, "distance": 8877.01810862884, "host": "ams", "lng": 6.641, "name": "Almelo"}, {"lat": 39.964, "distance": 4062.9936477040906, "host": "ewr", "lng": -75.144, "name": "Philadelphia"}, {"lat": 47.865, "distance": 8969.227999765351, "host": "cdg", "lng": 0.482, "name": "Villaines-sous-Luc\u00e9"}, {"lat": 48.892, "distance": 8981.616044891814, "host": "cdg", "lng": 2.465, "name": "Noisy-le-Sec"}, {"lat": 45.645, "distance": 877.7001263414077, "host": "sea", "lng": -122.63, "name": "Vancouver"}, {"lat": 43.064, "distance": 7712.604062159354, "host": "nrt", "lng": 141.347, "name": "Sapporo-shi"}, {"lat": 51.167, "distance": 8879.459576163255, "host": "ams", "lng": 4.4, "name": "Antwerpen"}, {"lat": 56.852, "distance": 9517.517943822346, "host": "arn", "lng": 60.612, "name": "Yekaterinburg"}, {"lat": 41.209, "distance": 4195.01379499875, "host": "ewr", "lng": -73.212, "name": "Bridgeport"}, {"lat": 40.797, "distance": 10249.468045303776, "host": "mxp", "lng": 14.074, "name": "Bacoli"}, {"lat": 4.479, "distance": 6039.9579891252815, "host": "atl", "lng": -75.166, "name": "Tolima"}, {"lat": 45.51, "distance": 3967.085291487949, "host": "ewr", "lng": -75.222, "name": "Clarence Creek"}, {"lat": 40.503, "distance": 4013.9699792021374, "host": "dca", "lng": -75.587, "name": "Macungie"}, {"lat": 21.033, "distance": 11778.73646592541, "host": "hkg", "lng": 105.85, "name": "H\u00e0 N\u1ed9i"}, {"lat": 33.531, "distance": 1061.2986179720094, "host": "bur", "lng": -111.891, "name": "Scottsdale"}, {"lat": 49.24, "distance": 1278.1896077851188, "host": "sea", "lng": -123.041, "name": "Vancouver"}, {"lat": 37.79, "distance": 16.293777102663682, "host": "sjc", "lng": -122.246, "name": "Oakland"}, {"lat": 40.578, "distance": 9312.18899653059, "host": "mad", "lng": -4.004, "name": "Galapagar"}, {"lat": 40.704, "distance": 2831.877706996593, "host": "ord", "lng": -89.656, "name": "Peoria"}, {"lat": -25.262, "distance": 10030.4289896997, "host": "gru", "lng": -53.341, "name": "Paran\u00e1"}, {"lat": 52.517, "distance": 9132.048784682176, "host": "fra", "lng": 13.4, "name": "Berlin"}, {"lat": 48.298, "distance": 9565.83418107067, "host": "vie", "lng": 14.462, "name": "Sch\u00f6rgendorf"}, {"lat": 41.725, "distance": 11108.92238772775, "host": "fra", "lng": 44.791, "name": "T'bilisi"}, {"lat": 36.846, "distance": 4065.7643653910072, "host": "dca", "lng": -76.098, "name": "Virginia Beach"}, {"lat": 43.38, "distance": 3625.7873258886625, "host": "yyz", "lng": -79.767, "name": "Burlington"}, {"lat": 50.992, "distance": 8960.706574082573, "host": "ams", "lng": 5.886, "name": "Sittard"}, {"lat": 33.88, "distance": 588.2320805664107, "host": "bur", "lng": -117.963, "name": "Fullerton"}, {"lat": 29.514, "distance": 2674.765751454644, "host": "dfw", "lng": -95.19, "name": "Friendswood"}, {"lat": 41.021, "distance": 10812.133384251518, "host": "vie", "lng": 28.995, "name": "UNKNOWN"}, {"lat": 39.175, "distance": 3939.4264014085647, "host": "dca", "lng": -76.838, "name": "Columbia"}, {"lat": 43.577, "distance": 3634.9297127855875, "host": "yyz", "lng": -79.631, "name": "Mississauga"}, {"lat": 35.874, "distance": 3729.7378857871777, "host": "dca", "lng": -80.333, "name": "Lexington"}, {"lat": 42.963, "distance": 3842.7992174609208, "host": "ewr", "lng": -77.143, "name": "Clifton Springs"}, {"lat": 40.588, "distance": 9329.427913618481, "host": "mad", "lng": -3.699, "name": "Tres Cantos"}, {"lat": 60.716, "distance": 2704.3504192712253, "host": "sea", "lng": -135.054, "name": "Whitehorse"}, {"lat": 33.523, "distance": 3243.4686591103095, "host": "atl", "lng": -86.768, "name": "Birmingham"}, {"lat": 39.845, "distance": 3310.917263897229, "host": "dca", "lng": -84.112, "name": "Dayton"}, {"lat": 44.465, "distance": 3877.656744637065, "host": "sea", "lng": -76.486, "name": "Perth Road"}, {"lat": 35.155, "distance": 3203.952375714531, "host": "ord", "lng": -86.608, "name": "Fayetteville"}, {"lat": 39.677, "distance": 1530.9404224387342, "host": "den", "lng": -104.965, "name": "Denver"}, {"lat": 51.505, "distance": 8638.477070384117, "host": "lhr", "lng": -0.2, "name": "England"}, {"lat": 53.56, "distance": 8907.9958782864, "host": "fra", "lng": 10.049, "name": "Hamburg"}, {"lat": 40.553, "distance": 4123.556375295625, "host": "ewr", "lng": -74.254, "name": "Woodbridge Township"}, {"lat": 45.473, "distance": 3943.9492230604287, "host": "yyz", "lng": -75.523, "name": "Ottawa"}, {"lat": 44.296, "distance": 3884.017225225174, "host": "ord", "lng": -76.428, "name": "Kingston"}, {"lat": 54.533, "distance": 8344.325381471841, "host": "lhr", "lng": -1.3, "name": "Thornaby"}, {"lat": 43.775, "distance": 10051.244060613562, "host": "vie", "lng": 15.918, "name": "Bilice"}, {"lat": 30.525, "distance": 3577.5499965318686, "host": "atl", "lng": -84.332, "name": "Tallahassee"}, {"lat": 39.833, "distance": 3136.2302318762454, "host": "ord", "lng": -86.175, "name": "Indianapolis"}, {"lat": 14.212, "distance": 11245.522093863652, "host": "sin", "lng": 121.165, "name": "Calamba"}, {"lat": 50.212, "distance": 8487.609977510581, "host": "lhr", "lng": -5.294, "name": "England"}, {"lat": 46.111, "distance": 989.6137685093659, "host": "sea", "lng": -118.308, "name": "Walla Walla"}, {"lat": 18.45, "distance": 5838.421319417014, "host": "mia", "lng": -66.085, "name": "San Juan"}, {"lat": 33.353, "distance": 1079.2701372193224, "host": "bur", "lng": -111.789, "name": "Gilbert"}, {"lat": 37.972, "distance": 26.260743366695102, "host": "sjc", "lng": -122.502, "name": "San Rafael"}, {"lat": 45.272, "distance": 4681.715410286024, "host": "ewr", "lng": -66.058, "name": "Saint John"}, {"lat": 21.211, "distance": 2814.41771278784, "host": "bur", "lng": -100.212, "name": "Victoria"}, {"lat": 26.409, "distance": 4144.129201933978, "host": "mia", "lng": -80.163, "name": "Boca Raton"}, {"lat": 47.546, "distance": 1088.936165421388, "host": "sjc", "lng": -122.589, "name": "Port Orchard"}, {"lat": -6.174, "distance": 13950.023606644638, "host": "sin", "lng": 106.829, "name": "Daerah Khusus Ibukota Jakarta"}, {"lat": 39.014, "distance": 2426.0686396858737, "host": "ord", "lng": -94.595, "name": "Kansas City"}, {"lat": -25.083, "distance": 10257.973328085289, "host": "gru", "lng": -50.15, "name": "Paran\u00e1"}, {"lat": 37.653, "distance": 10.116046781203629, "host": "sjc", "lng": -122.423, "name": "South San Francisco"}, {"lat": 53.383, "distance": 8374.916905145465, "host": "lhr", "lng": -2.6, "name": "England"}, {"lat": 45.558, "distance": 4095.156060584125, "host": "yyz", "lng": -73.57, "name": "Montr\u00e9al"}, {"lat": 37.992, "distance": 30.877399583720948, "host": "sjc", "lng": -122.581, "name": "San Anselmo"}, {"lat": 24.716, "distance": 4156.153250351518, "host": "mia", "lng": -81.077, "name": "Marathon"}, {"lat": 51.821, "distance": 8920.15113605797, "host": "fra", "lng": 6.606, "name": "Bocholt"}, {"lat": 42.565, "distance": 4357.75044543063, "host": "ewr", "lng": -70.858, "name": "Beverly"}, {"lat": 54.118, "distance": 8287.875594396586, "host": "lhr", "lng": -3.231, "name": "England"}, {"lat": 43.439, "distance": 3585.049484268575, "host": "ord", "lng": -80.265, "name": "Cambridge"}, {"lat": 48.891, "distance": 9151.9825387574, "host": "cdg", "lng": 6.089, "name": "Atton"}, {"lat": 51.655, "distance": 8617.013343473469, "host": "lhr", "lng": -0.396, "name": "England"}, {"lat": 43.94, "distance": 9523.401885930807, "host": "cdg", "lng": 4.901, "name": "Mori\u00e8res-l\u00e8s-Avignon"}, {"lat": -12.043, "distance": 7263.996534756643, "host": "gru", "lng": -77.028, "name": "UNKNOWN"}, {"lat": 49.17, "distance": 1270.738099500158, "host": "sea", "lng": -123.137, "name": "Richmond"}, {"lat": 51.45, "distance": 8651.636533113917, "host": "lhr", "lng": -0.017, "name": "England"}, {"lat": 33.723, "distance": 705.466501272983, "host": "bur", "lng": -116.377, "name": "Palm Desert"}, {"lat": 42.418, "distance": 3362.8017400844346, "host": "ord", "lng": -83.105, "name": "Detroit"}, {"lat": 55.789, "distance": 9608.83592348, "host": "arn", "lng": 49.122, "name": "Kazan"}, {"lat": 43.565, "distance": 3638.7421929284897, "host": "ord", "lng": -79.585, "name": "Mississauga"}, {"lat": 39.894, "distance": 4073.407895200734, "host": "ewr", "lng": -75.039, "name": "Haddonfield"}, {"lat": -34.523, "distance": 10519.700688995488, "host": "gru", "lng": -56.278, "name": "Canelones"}, {"lat": 59.333, "distance": 8647.025487879839, "host": "arn", "lng": 18.05, "name": "Stockholms l\u00e4n"}, {"lat": 40.023, "distance": 4052.0206967770923, "host": "ewr", "lng": -75.259, "name": "Penn Valley"}, {"lat": 42.506, "distance": 971.2702477371971, "host": "sea", "lng": -112.85, "name": "Rockland"}, {"lat": 41.011, "distance": 993.3726573382339, "host": "den", "lng": -111.678, "name": "Morgan"}, {"lat": 36.675, "distance": 138.81483391004363, "host": "sjc", "lng": -121.61, "name": "Salinas"}, {"lat": 37.459, "distance": 38.26920656075007, "host": "atl", "lng": -122.178, "name": "Menlo Park"}, {"lat": 19.267, "distance": 3064.634664721695, "host": "dfw", "lng": -98.9, "name": "Chalco de D\u00edaz Covarrubias"}, {"lat": 56.48, "distance": 8121.764306107355, "host": "lhr", "lng": -2.859, "name": "Scotland"}, {"lat": 55.667, "distance": 8812.090507821025, "host": "arn", "lng": 12.583, "name": "K\u00f8benhavn"}, {"lat": 38.283, "distance": 69.933720245327, "host": "sjc", "lng": -122.009, "name": "Fairfield"}, {"lat": 34.747, "distance": 2716.8575587625987, "host": "atl", "lng": -92.29, "name": "Little Rock"}, {"lat": 33.865, "distance": 563.4148057406198, "host": "bur", "lng": -118.397, "name": "Hermosa Beach"}, {"lat": 47.142, "distance": 9413.738706690643, "host": "ams", "lng": 8.454, "name": "Risch-Rotkreuz"}, {"lat": 45.353, "distance": 4084.850543633522, "host": "ewr", "lng": -73.731, "name": "Ch\u00e2teauguay"}, {"lat": 35.085, "distance": 1443.037402714957, "host": "bur", "lng": -106.651, "name": "Albuquerque"}, {"lat": 53.182, "distance": 8186.892792154592, "host": "lhr", "lng": -6.797, "name": "Newbridge"}, {"lat": 10.767, "distance": 4729.881294961317, "host": "mia", "lng": -85.647, "name": "Guanacaste Province"}, {"lat": 53.483, "distance": 8878.633601482295, "host": "fra", "lng": 9.133, "name": "Bremerv\u00f6rde"}, {"lat": 39.127, "distance": 3291.9813114482117, "host": "ord", "lng": -84.481, "name": "Cincinnati"}, {"lat": 39.916, "distance": 9154.773421456508, "host": "mad", "lng": -7.457, "name": "Alcains"}, {"lat": 40.815, "distance": 4191.442394701591, "host": "ewr", "lng": -73.362, "name": "Dix Hills"}, {"lat": 35.733, "distance": 8291.507066658476, "host": "nrt", "lng": 139.65, "name": "Nerima-ku"}, {"lat": 52.379, "distance": 8782.432560015115, "host": "ams", "lng": 4.54, "name": "Zandvoort"}, {"lat": 26.588, "distance": 4130.788017663385, "host": "mia", "lng": -80.208, "name": "Lake Worth"}, {"lat": 43.55, "distance": 3585.3090985730937, "host": "yyz", "lng": -80.25, "name": "Guelph"}, {"lat": 49.967, "distance": 2164.3527834321703, "host": "ord", "lng": -101.25, "name": "Elkhorn"}, {"lat": 51.853, "distance": 8819.35289297333, "host": "ams", "lng": 4.362, "name": "Hoogvliet Rotterdam"}, {"lat": 45.625, "distance": 9609.350767154372, "host": "mxp", "lng": 9.766, "name": "Cavernago"}, {"lat": 44.483, "distance": 3581.506810057536, "host": "ord", "lng": -80.216, "name": "Collingwood"}, {"lat": 63.417, "distance": 8042.00080475518, "host": "arn", "lng": 10.417, "name": "S\u00f8r-Tr\u00f8ndelag"}, {"lat": 28.555, "distance": 3931.542839328323, "host": "mia", "lng": -81.347, "name": "Orlando"}, {"lat": 29.502, "distance": 2632.372227879139, "host": "dfw", "lng": -95.689, "name": "Clodine"}, {"lat": 35.691, "distance": 8305.17950364588, "host": "nrt", "lng": 139.501, "name": "Koganei-shi"}, {"lat": 45.225, "distance": 10027.161669733743, "host": "vie", "lng": 18.738, "name": "Andrija\u0161evci"}, {"lat": 33.748, "distance": 3445.0855997972326, "host": "atl", "lng": -84.386, "name": "Atlanta"}, {"lat": 53.783, "distance": 8077.784289996796, "host": "lhr", "lng": -8.1, "name": "Strokestown"}, {"lat": 33.248, "distance": 1085.030203273384, "host": "bur", "lng": -111.79, "name": "Chandler"}, {"lat": 45.749, "distance": 10069.903138284928, "host": "vie", "lng": 21.227, "name": "Timi\u0219oara"}, {"lat": 59.665, "distance": 8218.004388093634, "host": "arn", "lng": 5.937, "name": "Hordaland"}, {"lat": 42.343, "distance": 4341.0141232547685, "host": "ewr", "lng": -71.123, "name": "Brookline"}, {"lat": 39.459, "distance": 210.24648412127283, "host": "sjc", "lng": -121.397, "name": "Oroville"}, {"lat": 45.8, "distance": 9863.086597624331, "host": "vie", "lng": 16, "name": "Zagreb"}, {"lat": 49.783, "distance": 1354.2331187418629, "host": "sea", "lng": -125.067, "name": "British Columbia"}, {"lat": -38.733, "distance": 9885.512195635753, "host": "gru", "lng": -72.6, "name": "Temuco"}, {"lat": 45.661, "distance": 3781.676520776186, "host": "ewr", "lng": -77.589, "name": "Killaloe"}, {"lat": 39.543, "distance": 300.23715712863793, "host": "sjc", "lng": -119.846, "name": "Reno"}, {"lat": 53.544, "distance": 1883.6812294823026, "host": "sea", "lng": -113.557, "name": "Edmonton"}, {"lat": 32.956, "distance": 2300.502102430528, "host": "dfw", "lng": -97.714, "name": "Springtown"}, {"lat": 13.75, "distance": 12765.401737216782, "host": "sin", "lng": 100.483, "name": "Krung Thep Maha Nakhon"}, {"lat": 42.814, "distance": 4350.3658218807295, "host": "fra", "lng": -70.886, "name": "Newburyport"}, {"lat": 29.556, "distance": 2400.435972852394, "host": "dfw", "lng": -98.365, "name": "San Antonio"}, {"lat": 48.24, "distance": 9646.842715504392, "host": "vie", "lng": 16.377, "name": "Wien"}, {"lat": -7.712, "distance": 10254.32831021472, "host": "gru", "lng": -35.599, "name": "Pernambuco"}, {"lat": 51.483, "distance": 8641.830215546883, "host": "lhr", "lng": -0.167, "name": "UNKNOWN"}, {"lat": 38.627, "distance": 2810.2853435933466, "host": "ord", "lng": -90.198, "name": "St. Louis"}, {"lat": 43.917, "distance": 9815.988999453015, "host": "mxp", "lng": 10.9, "name": "Toscana"}, {"lat": 34.771, "distance": 953.8238362263305, "host": "sea", "lng": -112.456, "name": "Chino Valley"}, {"lat": -1.437, "distance": 8704.372823042466, "host": "gru", "lng": -48.471, "name": "Par\u00e1"}, {"lat": 43.771, "distance": 3666.704932249872, "host": "yyz", "lng": -79.214, "name": "Toronto"}, {"lat": 41.256, "distance": 2301.6530027924136, "host": "ord", "lng": -95.94, "name": "Omaha"}, {"lat": 43.68, "distance": 3656.279746724625, "host": "ord", "lng": -79.354, "name": "Toronto"}, {"lat": 43.632, "distance": 834.1479846052067, "host": "sea", "lng": -116.284, "name": "Boise"}, {"lat": 33.708, "distance": 614.9876985322431, "host": "bur", "lng": -117.76, "name": "Irvine"}, {"lat": 39.461, "distance": 3342.4712328171254, "host": "ord", "lng": -83.817, "name": "Wilmington"}, {"lat": -36.845, "distance": 10484.628915523379, "host": "syd", "lng": 174.734, "name": "Auckland"}, {"lat": 44.121, "distance": 1761.6292645796136, "host": "den", "lng": -103.198, "name": "Rapid City"}, {"lat": 46.055, "distance": 4615.112906924358, "host": "ewr", "lng": -66.734, "name": "New Brunswick"}, {"lat": -26.883, "distance": 10221.835212700831, "host": "gru", "lng": -52.383, "name": "Santa Catarina"}, {"lat": 53.521, "distance": 1882.0542266195484, "host": "sea", "lng": -113.532, "name": "Edmonton"}, {"lat": 27.259, "distance": 3893.493259366186, "host": "dfw", "lng": -82.515, "name": "Gulf Gate Estates"}, {"lat": 44.951, "distance": 2490.3889615405124, "host": "ord", "lng": -94.053, "name": "Winsted"}, {"lat": 26.251, "distance": 4008.0706029360285, "host": "mia", "lng": -81.81, "name": "Naples"}, {"lat": 39.936, "distance": 1525.4619095387784, "host": "den", "lng": -105.047, "name": "Broomfield"}, {"lat": 42.636, "distance": 4349.664359965588, "host": "ewr", "lng": -70.94, "name": "Topsfield"}, {"lat": 33.652, "distance": 656.3071870018501, "host": "bur", "lng": -117.182, "name": "Menifee"}, {"lat": 53.983, "distance": 8377.325524680735, "host": "lhr", "lng": -1.533, "name": "England"}, {"lat": 44.007, "distance": 2702.1287907277933, "host": "ord", "lng": -91.227, "name": "Holmen"}, {"lat": 3.11, "distance": 13611.72272951719, "host": "sin", "lng": 101.617, "name": "Petaling Jaya"}, {"lat": 33.423, "distance": 647.2972392134185, "host": "bur", "lng": -117.62, "name": "San Clemente"}, {"lat": 11.35, "distance": 14180.614833271069, "host": "bom", "lng": 77.733, "name": "Erode"}, {"lat": 41.006, "distance": 10262.148551401478, "host": "mxp", "lng": 14.781, "name": "Altavilla Irpina"}, {"lat": 28.508, "distance": 3956.445772358751, "host": "mia", "lng": -81.09, "name": "Orlando"}, {"lat": 36.503, "distance": 3112.048497270782, "host": "atl", "lng": -87.229, "name": "Clarksville"}, {"lat": -5.261, "distance": 10087.985506636254, "host": "gru", "lng": -35.605, "name": "Rio Grande do Norte"}, {"lat": 39.798, "distance": 4033.8391278261624, "host": "ewr", "lng": -75.539, "name": "Wilmington"}, {"lat": 41.748, "distance": 2987.353977118949, "host": "ord", "lng": -87.712, "name": "Chicago"}, {"lat": 32.011, "distance": 11929.18105424057, "host": "fra", "lng": 34.772, "name": "Holon"}, {"lat": 51.535, "distance": 8613.836389941003, "host": "lhr", "lng": -0.666, "name": "Burnham"}, {"lat": 53.343, "distance": 8959.1604858512, "host": "fra", "lng": 10.859, "name": "Besitz"}, {"lat": 35.17, "distance": 3537.6095411038236, "host": "dca", "lng": -82.79, "name": "Brevard"}, {"lat": 41.896, "distance": 2900.9544811414517, "host": "den", "lng": -88.744, "name": "DeKalb"}, {"lat": 34.934, "distance": 3891.234020008073, "host": "atl", "lng": -78.823, "name": "Fayetteville"}, {"lat": 13.083, "distance": 13902.578290137562, "host": "bom", "lng": 80.283, "name": "Chennai"}, {"lat": 52.967, "distance": 8475.188226079194, "host": "lhr", "lng": -1.167, "name": "England"}, {"lat": 34.006, "distance": 11922.431357757181, "host": "sin", "lng": 71.998, "name": "UNKNOWN"}, {"lat": 50.827, "distance": 8967.840947185494, "host": "ams", "lng": 5.725, "name": "Maastricht"}, {"lat": 42.425, "distance": 3340.668660835877, "host": "ord", "lng": -83.374, "name": "Livonia"}, {"lat": 20.967, "distance": 3659.8723228858444, "host": "atl", "lng": -89.617, "name": "M\u00e9rida"}, {"lat": 42.396, "distance": 3360.286328585601, "host": "ord", "lng": -83.138, "name": "Detroit"}, {"lat": -22.759, "distance": 10619.73261422042, "host": "gru", "lng": -43.432, "name": "Rio de Janeiro"}, {"lat": -18.861, "distance": 10471.718231096791, "host": "gru", "lng": -41.951, "name": "Minas Gerais"}, {"lat": 42.402, "distance": 4340.093264280868, "host": "ewr", "lng": -71.119, "name": "Somerville"}, {"lat": 14.592, "distance": 11228.038661934997, "host": "sin", "lng": 121.015, "name": "Manila"}, {"lat": 38.901, "distance": 2423.588589467061, "host": "dfw", "lng": -94.638, "name": "Leawood"}, {"lat": -25.707, "distance": 16955.607505531658, "host": "jnb", "lng": 28.229, "name": "Pretoria"}, {"lat": 40.049, "distance": 4054.00950046601, "host": "ewr", "lng": -75.228, "name": "Philadelphia"}, {"lat": 40.731, "distance": 4140.760984031042, "host": "ewr", "lng": -73.998, "name": "New York"}, {"lat": 41.239, "distance": 2296.674723952929, "host": "ord", "lng": -95.999, "name": "Omaha"}, {"lat": 25.736, "distance": 4167.014851281692, "host": "mia", "lng": -80.311, "name": "Miami"}, {"lat": 41, "distance": 10486.798001434236, "host": "fra", "lng": 20, "name": "Sht\u00ebrmen"}, {"lat": 42.753, "distance": 4118.190240087058, "host": "ewr", "lng": -73.78, "name": "Latham"}, {"lat": 28.6, "distance": 12382.14487935362, "host": "bom", "lng": 77.2, "name": "New Delhi"}, {"lat": 35, "distance": 10586.271671865714, "host": "sin", "lng": 105, "name": "Dingxi Shi"}, {"lat": 30.659, "distance": 3217.5625802958275, "host": "dfw", "lng": -88.354, "name": "Mobile"}, {"lat": 40.718, "distance": 361.06280112584506, "host": "sjc", "lng": -124.115, "name": "Eureka"}, {"lat": -33.65, "distance": 16566.68816430918, "host": "jnb", "lng": 19.433, "name": "Worcester"}, {"lat": 45.544, "distance": 866.4994012944896, "host": "sea", "lng": -122.643, "name": "Portland"}, {"lat": 34.488, "distance": 3585.5944227886685, "host": "dca", "lng": -82.495, "name": "Belton"}, {"lat": 41.904, "distance": 2989.4564321034777, "host": "ord", "lng": -87.676, "name": "Chicago"}, {"lat": 39.764, "distance": 1526.855238683331, "host": "den", "lng": -105.018, "name": "Denver"}, {"lat": 42.986, "distance": 3819.411927584777, "host": "ewr", "lng": -77.428, "name": "Victor"}, {"lat": 20.883, "distance": 3028.573830418333, "host": "bur", "lng": -97.667, "name": "Veracruz"}, {"lat": 10.247, "distance": 6244.916695068156, "host": "mia", "lng": -67.596, "name": "Maracay"}, {"lat": 40.947, "distance": 4136.398180516784, "host": "ewr", "lng": -73.993, "name": "Dumont"}, {"lat": 60.202, "distance": 8745.590723378169, "host": "arn", "lng": 24.923, "name": "Helsinki"}, {"lat": 51.067, "distance": 8898.46207272977, "host": "ams", "lng": 4.633, "name": "Putte"}, {"lat": 41.023, "distance": 3501.423036440324, "host": "ord", "lng": -81.628, "name": "Norton"}, {"lat": 40.055, "distance": 4038.844279682437, "host": "ewr", "lng": -75.408, "name": "Strafford"}, {"lat": 45.402, "distance": 9652.792265051603, "host": "mxp", "lng": 10.277, "name": "Ghedi"}, {"lat": 41.935, "distance": 2938.3361333546723, "host": "ord", "lng": -88.291, "name": "St. Charles"}, {"lat": 58.5, "distance": 8572.620241033466, "host": "arn", "lng": 13.167, "name": "V\u00e4stra G\u00f6talands l\u00e4n"}, {"lat": 43.098, "distance": 9646.153206646086, "host": "cdg", "lng": 5.885, "name": "La Seyne-sur-Mer"}, {"lat": 51, "distance": 8859.671660729973, "host": "ams", "lng": 3.65, "name": "De Pinte"}, {"lat": 50.85, "distance": 8904.213428047413, "host": "ams", "lng": 4.35, "name": "Brussel"}, {"lat": 18.026, "distance": 6131.70251818979, "host": "mia", "lng": -63.045, "name": "Philipsburg"}, {"lat": 47.501, "distance": 1084.3764629456373, "host": "sea", "lng": -122.007, "name": "Issaquah"}, {"lat": 32.58, "distance": 2400.2569812157117, "host": "dfw", "lng": -96.744, "name": "Lancaster"}, {"lat": 41.061, "distance": 4171.015395346325, "host": "ewr", "lng": -73.543, "name": "Stamford"}, {"lat": 10.4, "distance": 5567.883062376888, "host": "mia", "lng": -75.514, "name": "Cartagena"}, {"lat": 50.297, "distance": 8939.938271350786, "host": "cdg", "lng": 4.101, "name": "Jeumont"}, {"lat": -33.9, "distance": 16505.151446807908, "host": "jnb", "lng": 18.633, "name": "Cape Town"}, {"lat": 51.883, "distance": 8634.508156877577, "host": "lhr", "lng": 0.367, "name": "England"}, {"lat": 40.923, "distance": 4136.51038176422, "host": "ewr", "lng": -73.998, "name": "Bergenfield"}, {"lat": 40.476, "distance": 10420.795609994771, "host": "mxp", "lng": 17.23, "name": "Taranto"}, {"lat": 48.863, "distance": 8977.485378171283, "host": "cdg", "lng": 2.329, "name": "Paris"}, {"lat": 40.952, "distance": 4157.335491232034, "host": "ewr", "lng": -73.738, "name": "Mamaroneck"}, {"lat": 46.217, "distance": 9799.112580747422, "host": "vie", "lng": 15.398, "name": "\u0160entjur"}, {"lat": 46.026, "distance": 4221.306711700654, "host": "yyz", "lng": -71.872, "name": "Qu\u00e9bec"}, {"lat": 38.194, "distance": 114.42248178059141, "host": "sjc", "lng": -121.25, "name": "Acampo"}, {"lat": -33.897, "distance": 11942.514390074575, "host": "syd", "lng": 151.103, "name": "Croydon Park"}, {"lat": 40.59, "distance": 4173.182416248479, "host": "ewr", "lng": -73.645, "name": "Long Beach"}, {"lat": 45.216, "distance": 830.1022815825415, "host": "sea", "lng": -122.667, "name": "Canby"}, {"lat": 37.991, "distance": 60.394109463295315, "host": "sjc", "lng": -121.81, "name": "Antioch"}, {"lat": 52.417, "distance": 8608.71792619989, "host": "lhr", "lng": 0.75, "name": "England"}, {"lat": -14.789, "distance": 10436.672830300537, "host": "gru", "lng": -39.047, "name": "Bahia"}, {"lat": 51.024, "distance": 1615.3205961274914, "host": "sea", "lng": -114.1, "name": "Calgary"}, {"lat": 14.565, "distance": 11227.472424519445, "host": "fra", "lng": 121.049, "name": "Makati"}, {"lat": 39.476, "distance": 4030.338956168484, "host": "ewr", "lng": -75.672, "name": "Middletown"}, {"lat": 49.817, "distance": 2236.961980256845, "host": "ord", "lng": -99.957, "name": "Brandon"}, {"lat": 37.358, "distance": 9441.328321323783, "host": "mad", "lng": -6.037, "name": "San Juan de Aznalfarache"}, {"lat": 36.764, "distance": 10043.371802924845, "host": "mad", "lng": 3.147, "name": "UNKNOWN"}, {"lat": 24.804, "distance": 10439.146895086576, "host": "tpe", "lng": 120.969, "name": "UNKNOWN"}, {"lat": 44.417, "distance": 9679.75489248859, "host": "mxp", "lng": 8.95, "name": "Genova"}, {"lat": 42.55, "distance": 4301.406351100237, "host": "ewr", "lng": -71.56, "name": "Ayer"}, {"lat": 55.251, "distance": 8803.044355207765, "host": "arn", "lng": 11.294, "name": "Sk\u00e6lsk\u00f8r"}, {"lat": 29.292, "distance": 2405.6604771254983, "host": "dfw", "lng": -98.47, "name": "San Antonio"}, {"lat": 49.136, "distance": 1266.061362365322, "host": "sea", "lng": -122.821, "name": "Surrey"}, {"lat": 42.053, "distance": 2957.4305453075003, "host": "ord", "lng": -88.054, "name": "Schaumburg"}, {"lat": 34.029, "distance": 549.2860024372287, "host": "bur", "lng": -118.399, "name": "Los Angeles"}, {"lat": 25.991, "distance": 4162.087339042344, "host": "mia", "lng": -80.211, "name": "Miramar"}, {"lat": 33.521, "distance": 3458.586260898989, "host": "atl", "lng": -84.324, "name": "Jonesboro"}, {"lat": 52.906, "distance": 8477.01705110253, "host": "lhr", "lng": -1.232, "name": "Beeston"}, {"lat": 41.705, "distance": 4327.508413878907, "host": "ewr", "lng": -71.46, "name": "Warwick"}, {"lat": 43.547, "distance": 826.616521023963, "host": "sea", "lng": -116.291, "name": "Boise"}, {"lat": 16.267, "distance": 6369.861179555683, "host": "mia", "lng": -61.583, "name": "Baie Mahault"}, {"lat": 27.98, "distance": 3925.9386715978226, "host": "mia", "lng": -81.731, "name": "Wahneta"}, {"lat": 44.946, "distance": 2568.481130246835, "host": "ord", "lng": -93.052, "name": "Saint Paul"}, {"lat": -20.204, "distance": 10384.178420217391, "host": "gru", "lng": -44.154, "name": "Minas Gerais"}, {"lat": -22.753, "distance": 10309.297278744536, "host": "gru", "lng": -47.33, "name": "S\u00e3o Paulo"}, {"lat": 42.39, "distance": 4232.371648753418, "host": "ewr", "lng": -72.453, "name": "Pelham"}, {"lat": 57.1, "distance": 8669.437897802058, "host": "arn", "lng": 12.25, "name": "Hallands l\u00e4n"}, {"lat": 47.789, "distance": 1208.9457743329801, "host": "sjc", "lng": -116.711, "name": "Hayden"}, {"lat": 47.483, "distance": 9438.4990324814, "host": "vie", "lng": 9.683, "name": "Hard"}, {"lat": 37.859, "distance": 2753.772357815472, "host": "ord", "lng": -91.003, "name": "Rolla"}, {"lat": 4.664, "distance": 6115.31020280873, "host": "mia", "lng": -74.045, "name": "Bogot\u00e1"}, {"lat": 45.458, "distance": 4491.091094219125, "host": "ewr", "lng": -68.481, "name": "Chester"}, {"lat": 39.269, "distance": 2441.2270645165563, "host": "dfw", "lng": -94.389, "name": "Liberty"}, {"lat": 38.733, "distance": 2816.4673008607333, "host": "ord", "lng": -90.107, "name": "Granite City"}, {"lat": 44.024, "distance": 3617.273758942158, "host": "ord", "lng": -79.805, "name": "New Tecumseth"}, {"lat": 51.7, "distance": 8603.674745799788, "host": "lhr", "lng": -0.6, "name": "England"}, {"lat": 40.291, "distance": 1525.4819371782203, "host": "den", "lng": -105.082, "name": "Berthoud"}, {"lat": 41.973, "distance": 2990.2525727331195, "host": "ord", "lng": -87.662, "name": "Chicago"}, {"lat": 35.602, "distance": 3864.439776110672, "host": "dca", "lng": -78.879, "name": "Holly Springs"}, {"lat": 43.967, "distance": 3662.129081934927, "host": "ord", "lng": -79.25, "name": "Whitchurch-Stouffville"}, {"lat": 41.561, "distance": 4187.945203042075, "host": "dca", "lng": -73.206, "name": "Woodbury"}, {"lat": 34.261, "distance": 9647.761821680659, "host": "cdg", "lng": -6.58, "name": "K\u00e9nitra"}, {"lat": 45.269, "distance": 3927.8358601345653, "host": "yyz", "lng": -75.752, "name": "Ottawa"}, {"lat": 45.43, "distance": 9682.254260300655, "host": "mxp", "lng": 10.984, "name": "Verona"}, {"lat": 34.091, "distance": 550.41528220785, "host": "bur", "lng": -118.294, "name": "Los Angeles"}, {"lat": 31, "distance": 12072.155520639284, "host": "cdg", "lng": 36, "name": "Karak Governorate"}, {"lat": 48.513, "distance": 10127.959885729384, "host": "fra", "lng": 32.26, "name": "Kropyvnytskyi"}, {"lat": 32.841, "distance": 3854.4016198612426, "host": "atl", "lng": -80.107, "name": "Charleston"}, {"lat": 44.614, "distance": 4886.698362035155, "host": "ewr", "lng": -63.595, "name": "Halifax"}, {"lat": 42.265, "distance": 3355.7088294860964, "host": "ord", "lng": -83.208, "name": "Allen Park"}, {"lat": -37.82, "distance": 10526.699425806564, "host": "syd", "lng": 175.286, "name": "Hamilton"}, {"lat": 34, "distance": 10613.256225854875, "host": "mxp", "lng": 9, "name": "UNKNOWN"}, {"lat": 35.977, "distance": 3880.7698809471985, "host": "dca", "lng": -78.554, "name": "Wake Forest"}, {"lat": 53.543, "distance": 1885.2524637373522, "host": "sea", "lng": -113.497, "name": "Edmonton"}, {"lat": 40.726, "distance": 4121.4233204928405, "host": "ewr", "lng": -74.233, "name": "Irvington"}, {"lat": 53.267, "distance": 8343.599597285207, "host": "lhr", "lng": -3.45, "name": "Wales"}, {"lat": 49.274, "distance": 1281.298127476058, "host": "sea", "lng": -122.765, "name": "Port Coquitlam"}, {"lat": 37.599, "distance": 9049.467319125997, "host": "kix", "lng": 126.978, "name": "Seoul"}, {"lat": 42.267, "distance": 10508.864247388266, "host": "fra", "lng": 23.817, "name": "selo Kostenets"}, {"lat": 56.011, "distance": 8119.220860451003, "host": "lhr", "lng": -3.722, "name": "Scotland"}, {"lat": 43.611, "distance": 9499.323288879172, "host": "cdg", "lng": 3.877, "name": "Montpellier"}, {"lat": 47.369, "distance": 8960.255842674824, "host": "cdg", "lng": -0.493, "name": "Saint-Melaine-sur-Aubance"}, {"lat": 41.1, "distance": 3213.588718452874, "host": "ord", "lng": -85.064, "name": "Fort Wayne"}, {"lat": 26.212, "distance": 4145.408653117652, "host": "mia", "lng": -80.267, "name": "Tamarac"}, {"lat": 40.723, "distance": 4180.727661361628, "host": "ewr", "lng": -73.517, "name": "Levittown"}, {"lat": 40.336, "distance": 3686.487991948304, "host": "dca", "lng": -79.551, "name": "Greensburg"}, {"lat": 42.396, "distance": 3351.421565658567, "host": "ord", "lng": -83.246, "name": "Detroit"}, {"lat": 43.597, "distance": 3629.7595408928605, "host": "yyz", "lng": -79.693, "name": "Mississauga"}, {"lat": -23.417, "distance": 10001.386544232066, "host": "gru", "lng": -51.917, "name": "Paran\u00e1"}, {"lat": 41.015, "distance": 3516.8795389465777, "host": "ord", "lng": -81.444, "name": "Akron"}, {"lat": 45.749, "distance": 9364.793084892524, "host": "cdg", "lng": 4.847, "name": "Lyon"}, {"lat": 33.675, "distance": 608.5999012875709, "host": "bur", "lng": -117.909, "name": "Costa Mesa"}, {"lat": -36.833, "distance": 9693.558426807444, "host": "gru", "lng": -73.05, "name": "Concepci\u00f3n"}, {"lat": 35.476, "distance": 3661.96917267224, "host": "atl", "lng": -81.254, "name": "Lincolnton"}, {"lat": 41.462, "distance": 3048.4777257388614, "host": "ord", "lng": -87.001, "name": "Valparaiso"}, {"lat": 42.724, "distance": 3334.3775996479994, "host": "ord", "lng": -83.422, "name": "Clarkston"}, {"lat": 49.893, "distance": 1370.0755933764194, "host": "sea", "lng": -119.485, "name": "Kelowna"}, {"lat": 40.524, "distance": 1523.1066737888018, "host": "den", "lng": -105.14, "name": "Fort Collins"}, {"lat": 53.459, "distance": 1872.3687428440164, "host": "sea", "lng": -113.655, "name": "Edmonton"}, {"lat": 51.517, "distance": 8645.433832826244, "host": "lhr", "lng": -0.033, "name": "England"}, {"lat": 41.15, "distance": 8989.655949113105, "host": "mad", "lng": -8.611, "name": "Porto"}, {"lat": 42.693, "distance": 4318.764183274264, "host": "ewr", "lng": -71.309, "name": "Dracut"}, {"lat": 27.18, "distance": 3908.612476257133, "host": "dfw", "lng": -82.389, "name": "Nokomis"}, {"lat": 9.687, "distance": 6625.311544606985, "host": "mia", "lng": -63.614, "name": "Punta de Mata"}, {"lat": 43.032, "distance": 4320.887535355291, "host": "ewr", "lng": -71.199, "name": "Raymond"}, {"lat": 40.833, "distance": 10254.178968502583, "host": "mxp", "lng": 14.25, "name": "Napoli"}, {"lat": 40.498, "distance": 4119.408836285936, "host": "sea", "lng": -74.319, "name": "Sayreville"}, {"lat": 17.069, "distance": 3974.184828583229, "host": "mia", "lng": -89.152, "name": "Melchor de Mencos"}, {"lat": 36.731, "distance": 10061.252646719331, "host": "mad", "lng": 3.41, "name": "Boudouaou"}, {"lat": -15.934, "distance": 9595.076715001496, "host": "gru", "lng": -50.14, "name": "Goi\u00e1s"}, {"lat": 49.26, "distance": 1280.767626101953, "host": "sea", "lng": -123.146, "name": "Vancouver"}, {"lat": 30.415, "distance": 2405.041379434061, "host": "dfw", "lng": -97.798, "name": "Austin"}, {"lat": 41.656, "distance": 9406.098340172306, "host": "mad", "lng": -0.877, "name": "Zaragoza"}, {"lat": 38.467, "distance": 11010.208333712244, "host": "fra", "lng": 27.133, "name": "\u0130zmir"}, {"lat": 28.528, "distance": 3927.4792258554016, "host": "mia", "lng": -81.408, "name": "Orlando"}, {"lat": 31.745, "distance": 1610.3357154871173, "host": "dfw", "lng": -106.373, "name": "El Paso"}, {"lat": 33.988, "distance": 3413.811082424159, "host": "ord", "lng": -84.647, "name": "Kennesaw"}, {"lat": 41.313, "distance": 3482.077082488204, "host": "ord", "lng": -81.811, "name": "Strongsville"}, {"lat": 18.067, "distance": 3585.8467880227226, "host": "dfw", "lng": -93.167, "name": "Cunduac\u00e1n"}, {"lat": 47.794, "distance": 1116.4631411679331, "host": "ord", "lng": -122.307, "name": "Mountlake Terrace"}, {"lat": 47.736, "distance": 1110.6868439448094, "host": "sea", "lng": -121.934, "name": "Duvall"}, {"lat": 48.893, "distance": 8975.697724268317, "host": "cdg", "lng": 2.344, "name": "Paris"}, {"lat": 41.086, "distance": 4138.660337124468, "host": "ewr", "lng": -73.929, "name": "Nyack"}, {"lat": 33.978, "distance": 551.4915840033565, "host": "bur", "lng": -118.435, "name": "Marina del Rey"}, {"lat": 48.109, "distance": 9465.3204848976, "host": "fra", "lng": 11.607, "name": "M\u00fcnchen"}, {"lat": 48.672, "distance": 8708.343849669633, "host": "cdg", "lng": -3.346, "name": "Cavan"}, {"lat": 46.945, "distance": 1023.3305268370483, "host": "sea", "lng": -123.049, "name": "Olympia"}, {"lat": 59.267, "distance": 8435.469087522852, "host": "arn", "lng": 11.146, "name": "\u00d8stfold"}, {"lat": 23.855, "distance": 10559.990231368856, "host": "tpe", "lng": 120.321, "name": "UNKNOWN"}, {"lat": 49.7, "distance": 1329.6797115024535, "host": "sea", "lng": -123.156, "name": "Squamish"}, {"lat": 34.927, "distance": 3725.4488427927045, "host": "dca", "lng": -80.728, "name": "Waxhaw"}, {"lat": 10, "distance": 4917.1087811949055, "host": "gru", "lng": -84, "name": "San Marcos"}, {"lat": 34.43, "distance": 508.5985779427072, "host": "bur", "lng": -118.519, "name": "Santa Clarita"}, {"lat": 27.874, "distance": 3832.8753374098787, "host": "mia", "lng": -82.85, "name": "Indian Rocks Beach"}, {"lat": 40.397, "distance": 4139.2357268089845, "host": "ewr", "lng": -74.108, "name": "Middletown"}, {"lat": 40.101, "distance": 4056.9867512195524, "host": "ewr", "lng": -75.178, "name": "Glenside"}, {"lat": 47.636, "distance": 1098.8857525627948, "host": "sea", "lng": -122.324, "name": "Seattle"}, {"lat": 34.201, "distance": 526.324972679905, "host": "bur", "lng": -118.54, "name": "Los Angeles"}, {"lat": 40.645, "distance": 4146.006674304515, "host": "ewr", "lng": -73.958, "name": "New York"}, {"lat": 52.717, "distance": 8479.483595073341, "host": "lhr", "lng": -1.5, "name": "England"}, {"lat": 34.107, "distance": 544.3394555234627, "host": "bur", "lng": -118.372, "name": "Los Angeles"}, {"lat": 33.606, "distance": 9103.632354973926, "host": "kix", "lng": 130.418, "name": "Fukuoka"}, {"lat": 51.296, "distance": 8627.111390252096, "host": "lhr", "lng": -0.791, "name": "England"}, {"lat": 36.468, "distance": 10484.962410508471, "host": "mxp", "lng": 10.752, "name": "Dar Chaabane Al Fehri"}, {"lat": 30.135, "distance": 2810.5951546940632, "host": "dfw", "lng": -93.273, "name": "Lake Charles"}, {"lat": 25.781, "distance": 4175.808065567239, "host": "dfw", "lng": -80.183, "name": "Miami"}, {"lat": 10.5, "distance": 6285.546821230451, "host": "mia", "lng": -66.917, "name": "Caracas"}, {"lat": 41.543, "distance": 9580.954883042383, "host": "mad", "lng": 2.109, "name": "Sabadell"}, {"lat": 50.141, "distance": 9149.547103066068, "host": "fra", "lng": 8.505, "name": "Bad Soden am Taunus"}, {"lat": 60.36, "distance": 8133.599797474951, "host": "arn", "lng": 5.232, "name": "Hordaland"}, {"lat": 52.633, "distance": 8438.607750631132, "host": "lhr", "lng": -2.5, "name": "Ironbridge"}, {"lat": 40.852, "distance": 10253.229479445736, "host": "mxp", "lng": 14.268, "name": "Napoli"}, {"lat": 40.997, "distance": 4272.917329663046, "host": "ewr", "lng": -72.323, "name": "Sag Harbor"}, {"lat": 44.1, "distance": 3794.097557228632, "host": "ord", "lng": -77.583, "name": "Quinte West"}, {"lat": 33.67, "distance": 614.2579257442451, "host": "sin", "lng": -117.823, "name": "Irvine"}, {"lat": 44.072, "distance": 2598.7927112434936, "host": "ord", "lng": -92.528, "name": "Rochester"}, {"lat": 33.749, "distance": 3444.874697858394, "host": "atl", "lng": -84.388, "name": "Atlanta"}, {"lat": 38.935, "distance": 3908.978876882982, "host": "dca", "lng": -77.267, "name": "Vienna"}, {"lat": 40.696, "distance": 4172.7417644589805, "host": "ewr", "lng": -73.621, "name": "Hempstead"}, {"lat": 50.8, "distance": 8862.047931678688, "host": "ams", "lng": 3.333, "name": "Zwevegem"}, {"lat": 26, "distance": 12910.148089220329, "host": "fra", "lng": 50.55, "name": "Southern Governorate"}, {"lat": -25.874, "distance": 16960.827747213534, "host": "jnb", "lng": 28.171, "name": "Centurion"}, {"lat": 26.559, "distance": 3986.136748426911, "host": "mia", "lng": -81.874, "name": "Fort Myers"}, {"lat": 47.458, "distance": 9438.2144180259, "host": "vie", "lng": 9.626, "name": "H\u00f6chst"}, {"lat": 38.814, "distance": 2720.4466540777976, "host": "ord", "lng": -91.208, "name": "Warrenton"}, {"lat": 53.2, "distance": 2145.159164892471, "host": "yyz", "lng": -105.75, "name": "Prince Albert"}, {"lat": 51.8, "distance": 8614.566200887133, "host": "lhr", "lng": -0.2, "name": "UNKNOWN"}, {"lat": 38.95, "distance": 2413.8178305475803, "host": "ord", "lng": -94.745, "name": "Lenexa"}, {"lat": 39.965, "distance": 3400.9336702338405, "host": "dca", "lng": -83.024, "name": "Columbus"}, {"lat": 39.454, "distance": 3307.839494441548, "host": "ord", "lng": -84.226, "name": "Lebanon"}, {"lat": 37.37, "distance": 54.567611741162345, "host": "sjc", "lng": -122.021, "name": "Sunnyvale"}, {"lat": 44.845, "distance": 2558.7524964630684, "host": "ord", "lng": -93.157, "name": "Eagan"}, {"lat": 34.235, "distance": 524.7322356967624, "host": "bur", "lng": -118.519, "name": "Los Angeles"}, {"lat": 44.256, "distance": 3158.2878544567916, "host": "ord", "lng": -85.535, "name": "Michigan"}, {"lat": 50.486, "distance": 1999.0239197195986, "host": "yyz", "lng": -104.616, "name": "Regina"}, {"lat": 42.176, "distance": 3334.057819111816, "host": "ord", "lng": -83.481, "name": "Belleville"}, {"lat": 17.375, "distance": 13525.80680956638, "host": "bom", "lng": 78.474, "name": "Hyderabad"}, {"lat": -16.5, "distance": 8258.600809263175, "host": "gru", "lng": -68.15, "name": "Madrid"}, {"lat": 13.754, "distance": 12763.893054820948, "host": "sin", "lng": 100.501, "name": "Krung Thep Maha Nakhon"}, {"lat": -23.546, "distance": 10356.71728228126, "host": "gru", "lng": -47.444, "name": "S\u00e3o Paulo"}, {"lat": 44.936, "distance": 2552.770508824422, "host": "ord", "lng": -93.251, "name": "Minneapolis"}, {"lat": 42.834, "distance": 2499.738986944172, "host": "ord", "lng": -93.627, "name": "Belmond"}, {"lat": 49, "distance": 9305.977448337968, "host": "fra", "lng": 9.77, "name": "Gaildorf"}, {"lat": 29.833, "distance": 2617.928608076121, "host": "dfw", "lng": -95.663, "name": "Houston"}, {"lat": 39.952, "distance": 4061.6026749432244, "host": "ord", "lng": -75.164, "name": "Philadelphia"}, {"lat": 34.17, "distance": 554.5986458078219, "host": "sjc", "lng": -118.122, "name": "Pasadena"}, {"lat": 43.68, "distance": 3626.2976694370905, "host": "yyz", "lng": -79.727, "name": "Brampton"}, {"lat": 45.415, "distance": 4170.198636845435, "host": "yyz", "lng": -72.626, "name": "Roxton Pond"}, {"lat": 35.484, "distance": 2223.305622204191, "host": "dfw", "lng": -97.654, "name": "Oklahoma City"}, {"lat": 49.019, "distance": 1253.7877786570652, "host": "sea", "lng": -123.087, "name": "Delta"}, {"lat": 35.743, "distance": 3889.691860990501, "host": "atl", "lng": -78.536, "name": "Raleigh"}, {"lat": 46.252, "distance": 9845.03467310004, "host": "vie", "lng": 16.615, "name": "Ludbreg"}, {"lat": 32.69, "distance": 2356.7227506320073, "host": "dfw", "lng": -97.191, "name": "Arlington"}, {"lat": 33.604, "distance": 1069.442232346678, "host": "bur", "lng": -111.743, "name": "Fountain Hills"}, {"lat": 55.154, "distance": 9703.937426074654, "host": "arn", "lng": 61.429, "name": "Chelyabinsk"}, {"lat": 36.11, "distance": 667.2620138541035, "host": "sjc", "lng": -115.212, "name": "Las Vegas"}, {"lat": 26.596, "distance": 4137.22053346751, "host": "mia", "lng": -80.13, "name": "Lake Worth"}, {"lat": 46.491, "distance": 9601.456084436742, "host": "mxp", "lng": 11.34, "name": "Bozen"}, {"lat": 28.531, "distance": 3976.289788303677, "host": "mia", "lng": -80.852, "name": "Titusville"}, {"lat": 49.343, "distance": 9227.128434340142, "host": "fra", "lng": 8.659, "name": "Sandhausen"}, {"lat": 47.231, "distance": 9431.619628372273, "host": "mxp", "lng": 9.024, "name": "Gommiswald"}, {"lat": 50.838, "distance": 8965.336768906847, "host": "ams", "lng": 5.69, "name": "Maastricht"}, {"lat": 53.967, "distance": 8399.255062882074, "host": "lhr", "lng": -1.083, "name": "England"}, {"lat": 32.636, "distance": 748.1970529395245, "host": "bur", "lng": -117.053, "name": "Chula Vista"}, {"lat": 34.004, "distance": 556.7880334245432, "host": "sjc", "lng": -118.309, "name": "Los Angeles"}, {"lat": 34.004, "distance": 549.3316034591305, "host": "bur", "lng": -118.434, "name": "Los Angeles"}, {"lat": 3.163, "distance": 13603.078888017033, "host": "sin", "lng": 101.675, "name": "Kuala Lumpur"}, {"lat": 35.506, "distance": 3679.9233317802073, "host": "dca", "lng": -81.037, "name": "Denver"}, {"lat": 42.527, "distance": 9113.548887444962, "host": "mad", "lng": -4.767, "name": "Villaluenga de la Vega"}, {"lat": 55.897, "distance": 9453.965753422359, "host": "arn", "lng": 37.43, "name": "Khimki"}, {"lat": 37.342, "distance": 65.25508015112246, "host": "sjc", "lng": -121.883, "name": "San Jose"}, {"lat": 43.608, "distance": 3645.1116956099186, "host": "ord", "lng": -79.501, "name": "Toronto"}, {"lat": 49.215, "distance": 1275.747380773565, "host": "sea", "lng": -123.14, "name": "Vancouver"}, {"lat": -6.367, "distance": 9840.317173517624, "host": "gru", "lng": -39.3, "name": "Cear\u00e1"}, {"lat": -8.887, "distance": 10255.923080589895, "host": "gru", "lng": -36.493, "name": "Pernambuco"}, {"lat": 34.126, "distance": 3998.1775241458563, "host": "dca", "lng": -77.919, "name": "North Carolina"}, {"lat": 31.333, "distance": 1270.451163678838, "host": "bur", "lng": -110.933, "name": "L\u00e1zaro C\u00e1rdenas"}, {"lat": 25.048, "distance": 10379.74148450881, "host": "tpe", "lng": 121.532, "name": "Taipei City"}, {"lat": 40.78, "distance": 4134.291720094476, "host": "ewr", "lng": -74.063, "name": "Secaucus"}, {"lat": 49.812, "distance": 1360.9161304873228, "host": "sea", "lng": -119.508, "name": "British Columbia"}, {"lat": 40.94, "distance": 10662.73541924315, "host": "fra", "lng": 24.402, "name": "Kavala"}, {"lat": 38.545, "distance": 127.24740029166993, "host": "sjc", "lng": -121.383, "name": "Sacramento"}, {"lat": 37.761, "distance": 5.803057966785973, "host": "sjc", "lng": -122.484, "name": "San Francisco"}, {"lat": 29.74, "distance": 2608.174010515881, "host": "dfw", "lng": -95.83, "name": "Katy"}, {"lat": 41.55, "distance": 8971.118333898918, "host": "mad", "lng": -8.42, "name": "Braga"}, {"lat": 41.686, "distance": 10225.153488196876, "host": "mxp", "lng": 15.382, "name": "San Severo"}, {"lat": 41.67, "distance": 2671.5225928859054, "host": "ord", "lng": -91.513, "name": "Iowa City"}, {"lat": -0.217, "distance": 6157.535850396592, "host": "mia", "lng": -78.5, "name": "Quito"}, {"lat": 38.952, "distance": 3929.4556148856145, "host": "dca", "lng": -77.02, "name": "Washington"}, {"lat": 37.344, "distance": 1355.006312533849, "host": "den", "lng": -107.08, "name": "Colorado"}, {"lat": 32.82, "distance": 2400.485669702498, "host": "dfw", "lng": -96.634, "name": "Mesquite"}, {"lat": 33.436, "distance": 1064.3633493409286, "host": "dca", "lng": -111.917, "name": "Tempe"}, {"lat": 41.037, "distance": 10363.326039513391, "host": "mxp", "lng": 17.138, "name": "Cozze"}, {"lat": 41.446, "distance": 3449.584708162888, "host": "dca", "lng": -82.181, "name": "Lorain"}, {"lat": 4.439, "distance": 6037.798595631334, "host": "mia", "lng": -75.232, "name": "Ibagu\u00e9"}, {"lat": 51.514, "distance": 8642.830293587727, "host": "lhr", "lng": -0.093, "name": "England"}, {"lat": 17.517, "distance": 3635.590158125304, "host": "dfw", "lng": -93.067, "name": "Chiapas"}, {"lat": 45.736, "distance": 9366.99494927894, "host": "cdg", "lng": 4.869, "name": "Lyon"}, {"lat": 42.331, "distance": 3368.4213253831317, "host": "mia", "lng": -83.046, "name": "Detroit"}, {"lat": 57.65, "distance": 8611.313576264289, "host": "arn", "lng": 12.017, "name": "M\u00f6lndal"}, {"lat": 52.417, "distance": 8992.48938591797, "host": "fra", "lng": 9.6, "name": "Garbsen"}, {"lat": 45.072, "distance": 2559.8935960855083, "host": "den", "lng": -93.187, "name": "New Brighton"}, {"lat": 33.771, "distance": 3452.451061683373, "host": "atl", "lng": -84.293, "name": "Decatur"}, {"lat": 26.623, "distance": 3982.680390304353, "host": "mia", "lng": -81.875, "name": "Fort Myers"}, {"lat": 41.768, "distance": 4396.045651353164, "host": "ewr", "lng": -70.601, "name": "Bourne"}, {"lat": 36.687, "distance": 9487.417808285727, "host": "mad", "lng": -6.136, "name": "Jerez de la Frontera"}, {"lat": 54.9, "distance": 9249.583384920183, "host": "fra", "lng": 23.9, "name": "Kaunas"}, {"lat": 49.248, "distance": 1279.344875747782, "host": "sea", "lng": -123.121, "name": "Vancouver"}, {"lat": 53.419, "distance": 9902.593227884112, "host": "arn", "lng": 59.047, "name": "Magnitogorsk"}, {"lat": 50.88, "distance": 8917.501008536381, "host": "lhr", "lng": 4.701, "name": "Leuven"}, {"lat": 44.733, "distance": 3507.6224733829267, "host": "ord", "lng": -81.133, "name": "Wiarton"}, {"lat": 51.567, "distance": 8627.1290949036, "host": "lhr", "lng": -0.333, "name": "England"}, {"lat": -24.203, "distance": 9099.486382777824, "host": "gru", "lng": -65.175, "name": "Jujuy"}, {"lat": 46, "distance": 10175.882192685547, "host": "fra", "lng": 25, "name": "Jude\u021bul Bra\u0219ov"}, {"lat": 41.746, "distance": 4447.464678508338, "host": "ewr", "lng": -69.975, "name": "Orleans"}, {"lat": 45.05, "distance": 9562.5075138042, "host": "mxp", "lng": 7.667, "name": "Torino"}, {"lat": 37.349, "distance": 60.442389642440205, "host": "sjc", "lng": -121.951, "name": "Santa Clara"}, {"lat": 38.746, "distance": 3894.7199478438224, "host": "dca", "lng": -77.49, "name": "Manassas"}, {"lat": 45.328, "distance": 3933.572762128307, "host": "ewr", "lng": -75.672, "name": "Ottawa"}, {"lat": 39.862, "distance": 1516.6793620913681, "host": "den", "lng": -105.144, "name": "Arvada"}, {"lat": 41.583, "distance": 4201.564683212498, "host": "ewr", "lng": -73.034, "name": "Waterbury"}, {"lat": 41.297, "distance": 3967.452787426257, "host": "dca", "lng": -75.953, "name": "Shavertown"}, {"lat": 42.958, "distance": 3425.8919299763133, "host": "yyz", "lng": -82.278, "name": "Sarnia"}, {"lat": 37.069, "distance": 107.12063846739281, "host": "sjc", "lng": -121.557, "name": "Gilroy"}, {"lat": 33.453, "distance": 3067.5808581267315, "host": "dfw", "lng": -88.793, "name": "Starkville"}, {"lat": 53.079, "distance": 8420.560919759, "host": "lhr", "lng": -2.14, "name": "Brown Edge"}, {"lat": 37.738, "distance": 87.76096743786542, "host": "sjc", "lng": -121.426, "name": "Tracy"}, {"lat": 45.31, "distance": 9625.488978287105, "host": "mxp", "lng": 9.501, "name": "Lodi"}, {"lat": -22.91, "distance": 10341.162266838326, "host": "gru", "lng": -47.067, "name": "S\u00e3o Paulo"}, {"lat": 19.9, "distance": 2902.7793958662073, "host": "sjc", "lng": -100.45, "name": "Maravatio"}, {"lat": -27.495, "distance": 10545.157685418335, "host": "gru", "lng": -48.655, "name": "Santa Catarina"}, {"lat": 35.521, "distance": 8300.271777511583, "host": "nrt", "lng": 139.717, "name": "Kawasaki"}, {"lat": 31.054, "distance": 2387.8844975949332, "host": "dfw", "lng": -97.642, "name": "Harker Heights"}, {"lat": 34.15, "distance": 11891.706741815899, "host": "vie", "lng": 42.382, "name": "Haditha"}, {"lat": 38.955, "distance": 3935.808118186028, "host": "dca", "lng": -76.944, "name": "Hyattsville"}, {"lat": 41.8, "distance": 10088.476570973562, "host": "mxp", "lng": 12.6, "name": "Ciampino"}, {"lat": 35.798, "distance": 3200.2224596968285, "host": "ord", "lng": -86.436, "name": "Murfreesboro"}, {"lat": 44.667, "distance": 4887.605741811061, "host": "ewr", "lng": -63.567, "name": "Dartmouth"}, {"lat": 46.629, "distance": 3021.5169830772506, "host": "ord", "lng": -87.48, "name": "Marquette"}, {"lat": 52.532, "distance": 9130.09537151977, "host": "fra", "lng": 13.385, "name": "Berlin"}, {"lat": 46.052, "distance": 9846.248685302216, "host": "vie", "lng": 16.173, "name": "Konj\u0161\u010dina"}, {"lat": 40.801, "distance": 4141.929349766205, "host": "ewr", "lng": -73.965, "name": "New York"}, {"lat": 43.352, "distance": 4115.329935871049, "host": "ewr", "lng": -73.69, "name": "Queensbury"}, {"lat": 40.096, "distance": 4146.130527739226, "host": "ewr", "lng": -74.11, "name": "Brick"}, {"lat": 35.129, "distance": 455.0744772548701, "host": "bur", "lng": -118.511, "name": "Tehachapi"}, {"lat": -12.256, "distance": 10271.123886652138, "host": "gru", "lng": -38.966, "name": "Bahia"}, {"lat": 40.877, "distance": 3256.122857219149, "host": "dca", "lng": -84.587, "name": "Van Wert"}, {"lat": 51.133, "distance": 1633.9681857829494, "host": "sea", "lng": -113.856, "name": "Delacour"}, {"lat": 48.897, "distance": 8971.162207902666, "host": "cdg", "lng": 2.257, "name": "Courbevoie"}, {"lat": 33.323, "distance": 1078.1076743010624, "host": "bur", "lng": -111.824, "name": "Chandler"}, {"lat": 45.504, "distance": 4095.348664321631, "host": "yyz", "lng": -73.575, "name": "Montr\u00e9al"}, {"lat": 49.262, "distance": 1280.7999107727617, "host": "sea", "lng": -123.092, "name": "Vancouver"}, {"lat": 45.517, "distance": 4086.8089820401806, "host": "yyz", "lng": -73.683, "name": "Montr\u00e9al"}, {"lat": 45.948, "distance": 9708.508557699079, "host": "mxp", "lng": 12.653, "name": "Friuli-Venezia Giulia"}, {"lat": 30.077, "distance": 12016.069687670897, "host": "mxp", "lng": 31.286, "name": "Cairo Governorate"}, {"lat": 27.929, "distance": 3839.610891839821, "host": "mia", "lng": -82.742, "name": "Clearwater"}, {"lat": -23.483, "distance": 10438.171610262389, "host": "gru", "lng": -46.35, "name": "S\u00e3o Paulo"}, {"lat": 32.692, "distance": 2365.583001051703, "host": "dfw", "lng": -97.089, "name": "Arlington"}, {"lat": 46.097, "distance": 4768.756791278085, "host": "ewr", "lng": -64.709, "name": "Dieppe"}, {"lat": 43.303, "distance": 4327.924466001078, "host": "ewr", "lng": -71.046, "name": "Rochester"}, {"lat": 45.717, "distance": 9879.782529923667, "host": "vie", "lng": 16.217, "name": "Bukevje"}, {"lat": -23, "distance": 10566.943035749688, "host": "gru", "lng": -44.3, "name": "Rio de Janeiro"}, {"lat": 47.132, "distance": 1042.8299977510126, "host": "sea", "lng": -122.375, "name": "Tacoma"}, {"lat": 33.714, "distance": 607.7153961707716, "host": "bur", "lng": -117.87, "name": "Santa Ana"}, {"lat": 24.712, "distance": 10397.685264261914, "host": "tpe", "lng": 121.646, "name": "UNKNOWN"}, {"lat": 47.006, "distance": 10192.80128197485, "host": "fra", "lng": 28.858, "name": "Chi\u0219in\u0103u"}, {"lat": 52.246, "distance": 8794.594992404345, "host": "ams", "lng": 4.559, "name": "Lisse"}, {"lat": -33.438, "distance": 9530.52656226991, "host": "gru", "lng": -70.65, "name": "Santiago"}, {"lat": -21.705, "distance": 10223.289247854946, "host": "gru", "lng": -47.475, "name": "S\u00e3o Paulo"}, {"lat": 39.338, "distance": 3294.739168882996, "host": "ord", "lng": -84.404, "name": "Olde West Chester"}, {"lat": 35.337, "distance": 3706.2391821295173, "host": "atl", "lng": -80.796, "name": "Charlotte"}, {"lat": 53.067, "distance": 8403.658658893195, "host": "lhr", "lng": -2.517, "name": "England"}, {"lat": 18.467, "distance": 5503.227799443256, "host": "mia", "lng": -69.9, "name": "Santo Domingo"}, {"lat": 4.167, "distance": 15083.559765445383, "host": "sin", "lng": 73.5, "name": "UNKNOWN"}, {"lat": 44.778, "distance": 10008.762858109694, "host": "vie", "lng": 17.194, "name": "Banja Luka"}, {"lat": 38.744, "distance": 3916.55036623921, "host": "dca", "lng": -77.233, "name": "Springfield"}, {"lat": -22.424, "distance": 10633.950059850715, "host": "gru", "lng": -42.968, "name": "Rio de Janeiro"}, {"lat": 18.417, "distance": 5494.726164955774, "host": "mia", "lng": -70.033, "name": "Bajos de Haina"}, {"lat": 43.975, "distance": 2761.2898409174627, "host": "ord", "lng": -90.485, "name": "Tomah"}, {"lat": 39.904, "distance": 3150.6401639556593, "host": "ord", "lng": -85.993, "name": "Indianapolis"}, {"lat": 42.285, "distance": 4172.684500872472, "host": "ord", "lng": -73.214, "name": "Lee"}, {"lat": 37.289, "distance": 53.006149484721526, "host": "sjc", "lng": -122.24, "name": "La Honda"}, {"lat": 57.724, "distance": 8596.056577771766, "host": "arn", "lng": 11.77, "name": "V\u00e4stra G\u00f6talands l\u00e4n"}, {"lat": 33.177, "distance": 2381.2288005411633, "host": "dfw", "lng": -96.699, "name": "McKinney"}, {"lat": 19.567, "distance": 5350.8311042083515, "host": "mia", "lng": -70.867, "name": "Navarrete"}, {"lat": 40.831, "distance": 4222.941979796103, "host": "ewr", "lng": -72.976, "name": "Medford"}, {"lat": 38.768, "distance": 1555.9595363781284, "host": "den", "lng": -104.664, "name": "Colorado Springs"}, {"lat": 19.15, "distance": 13497.461458897806, "host": "bom", "lng": 73.267, "name": "Badlapur"}, {"lat": 35.179, "distance": 2926.849526532422, "host": "dfw", "lng": -89.757, "name": "Memphis"}, {"lat": 50.789, "distance": 8719.831797421552, "host": "lhr", "lng": 0.284, "name": "England"}, {"lat": 39.024, "distance": 2419.4109999530233, "host": "dfw", "lng": -94.671, "name": "Mission"}, {"lat": 33.086, "distance": 2392.273337322059, "host": "dfw", "lng": -96.612, "name": "Allen"}, {"lat": -20.583, "distance": 10112.451003167293, "host": "gru", "lng": -47.863, "name": "S\u00e3o Paulo"}, {"lat": 46.717, "distance": 1094.6526038697575, "host": "sjc", "lng": -116.918, "name": "Moscow"}, {"lat": 47.168, "distance": 1046.84644556194, "host": "sea", "lng": -122.503, "name": "Lakewood"}, {"lat": -27.66, "distance": 11406.29025211642, "host": "syd", "lng": 152.879, "name": "Augustine Heights"}, {"lat": 54.35, "distance": 8261.980235826262, "host": "lhr", "lng": -3.4, "name": "England"}, {"lat": 38.614, "distance": 2789.2833457334846, "host": "ord", "lng": -90.444, "name": "Des Peres"}, {"lat": -26.824, "distance": 9311.24826902341, "host": "gru", "lng": -65.223, "name": "San Miguel de Tucum\u00e1n"}, {"lat": 53.109, "distance": 8897.712127668206, "host": "ams", "lng": 8.781, "name": "Bremen"}, {"lat": 33.702, "distance": 721.4853152992807, "host": "bur", "lng": -116.171, "name": "Coachella"}, {"lat": 51.409, "distance": 8654.588065158974, "host": "lhr", "lng": -0.025, "name": "England"}, {"lat": 54.117, "distance": 8287.859545322572, "host": "lhr", "lng": -3.233, "name": "England"}, {"lat": 42.634, "distance": 4321.006475189118, "host": "ewr", "lng": -71.296, "name": "Lowell"}, {"lat": 50.117, "distance": 9159.33899286835, "host": "fra", "lng": 8.683, "name": "Frankfurt am Main"}, {"lat": 50.467, "distance": 8960.34757790676, "host": "ams", "lng": 4.867, "name": "Namur"}, {"lat": 23.267, "distance": 12941.59378727178, "host": "bom", "lng": 77.4, "name": "Bhopal"}, {"lat": 36.541, "distance": 161.65337401480755, "host": "sjc", "lng": -121.396, "name": "Gonzales"}, {"lat": 47.38, "distance": 9235.000891788235, "host": "cdg", "lng": 5.068, "name": "Bellefond"}, {"lat": 43.6, "distance": 3560.734074484802, "host": "yyz", "lng": -80.55, "name": "Elmira"}, {"lat": 47, "distance": 9405.570169831897, "host": "ams", "lng": 8, "name": "Romoos"}, {"lat": 51.496, "distance": 8642.914096210647, "host": "lhr", "lng": -0.122, "name": "England"}, {"lat": 53.417, "distance": 8353.337175686273, "host": "lhr", "lng": -3, "name": "England"}, {"lat": 29.718, "distance": 2644.736862325583, "host": "dfw", "lng": -95.419, "name": "Houston"}, {"lat": 51.967, "distance": 8951.10624932371, "host": "fra", "lng": 7.633, "name": "M\u00fcnster"}, {"lat": 48.15, "distance": 9683.869388102708, "host": "vie", "lng": 17.117, "name": "Bratislavsk\u00fd kraj"}, {"lat": 56.138, "distance": 8797.524705406653, "host": "arn", "lng": 13.395, "name": "Sk\u00e5ne l\u00e4n"}, {"lat": 30.456, "distance": 2411.9829711639445, "host": "dfw", "lng": -97.694, "name": "Austin"}, {"lat": 51.033, "distance": 8893.897874541944, "host": "ams", "lng": 4.467, "name": "Mechelen"}, {"lat": 42.374, "distance": 2965.2801434899834, "host": "ord", "lng": -87.944, "name": "Gurnee"}, {"lat": 28.136, "distance": 3855.1611144654375, "host": "dfw", "lng": -82.448, "name": "Lutz"}, {"lat": 51.405, "distance": 8644.155999877054, "host": "lhr", "lng": -0.251, "name": "England"}, {"lat": 41.724, "distance": 2954.177136846676, "host": "ord", "lng": -88.113, "name": "Naperville"}, {"lat": 44.562, "distance": 9528.401030079, "host": "cdg", "lng": 6.081, "name": "Gap"}, {"lat": 33.466, "distance": 1062.0737191758299, "host": "bur", "lng": -111.925, "name": "Scottsdale"}, {"lat": 43.71, "distance": 2980.1441985556285, "host": "ord", "lng": -87.748, "name": "Sheboygan"}, {"lat": -31.6, "distance": 9997.525217355553, "host": "gru", "lng": -60.708, "name": "Santa Fe"}, {"lat": 37.059, "distance": 11466.821415030474, "host": "vie", "lng": 37.383, "name": "Gaziantep"}, {"lat": -19.766, "distance": 10359.777852441728, "host": "gru", "lng": -44.079, "name": "Minas Gerais"}, {"lat": 29.57, "distance": 2378.3445932032782, "host": "dfw", "lng": -98.616, "name": "San Antonio"}, {"lat": -53.15, "distance": 11226.509665821255, "host": "gru", "lng": -70.917, "name": "Punta Arenas"}, {"lat": 35.448, "distance": 8310.449147650732, "host": "nrt", "lng": 139.643, "name": "\u6a2a\u6d5c\u5e02"}, {"lat": 42.932, "distance": 3383.345543196911, "host": "ord", "lng": -82.803, "name": "Memphis"}, {"lat": 40.033, "distance": 4013.369038688642, "host": "ewr", "lng": -75.719, "name": "Downingtown"}, {"lat": 51.583, "distance": 8651.094594013064, "host": "lhr", "lng": 0.2, "name": "England"}, {"lat": 40.653, "distance": 4165.9435178808635, "host": "ewr", "lng": -73.715, "name": "Valley Stream"}, {"lat": 50.869, "distance": 8980.493434334403, "host": "ams", "lng": 6.093, "name": "Herzogenrath"}, {"lat": -3.945, "distance": 12474.379894194853, "host": "sin", "lng": 122.499, "name": "Sulawesi Tenggara"}, {"lat": 50.967, "distance": 8626.491898527056, "host": "lhr", "lng": -1.35, "name": "England"}, {"lat": 41.878, "distance": 4332.308586425762, "host": "ewr", "lng": -71.354, "name": "Pawtucket"}, {"lat": 25.983, "distance": 4150.939363993234, "host": "mia", "lng": -80.343, "name": "Miramar"}, {"lat": 24.906, "distance": 12998.85454016943, "host": "sin", "lng": 67.082, "name": "Karachi"}, {"lat": -33.926, "distance": 16487.61450167836, "host": "jnb", "lng": 18.423, "name": "Caledon"}, {"lat": 32.248, "distance": 1210.4922857897689, "host": "bur", "lng": -110.95, "name": "Tucson"}, {"lat": 37.134, "distance": 3473.978717115277, "host": "atl", "lng": -82.875, "name": "Van"}, {"lat": 51.317, "distance": 8891.24624892518, "host": "ams", "lng": 4.95, "name": "Turnhout"}, {"lat": 29.742, "distance": 2631.01932698066, "host": "dfw", "lng": -95.564, "name": "Houston"}, {"lat": 42.544, "distance": 3347.4731655372625, "host": "ord", "lng": -83.279, "name": "West Bloomfield Township"}, {"lat": 52.28, "distance": 8800.29158613389, "host": "ams", "lng": 4.755, "name": "Schiphol-Rijk"}, {"lat": 52.071, "distance": 8655.279856086841, "host": "lhr", "lng": 1.144, "name": "England"}, {"lat": 16.783, "distance": 12751.814755725323, "host": "sin", "lng": 96.167, "name": "\u101b\u1014\u103a\u1000\u102f\u1014\u103a"}, {"lat": 45.501, "distance": 4094.3699712561693, "host": "yyz", "lng": -73.588, "name": "Montreal"}, {"lat": 40.56, "distance": 955.5204408786658, "host": "den", "lng": -111.967, "name": "South Jordan"}, {"lat": 52.6, "distance": 8465.076372841224, "host": "lhr", "lng": -2, "name": "England"}, {"lat": 51.352, "distance": 8685.721076996977, "host": "lhr", "lng": 0.534, "name": "England"}, {"lat": 35.233, "distance": 2251.4432686203286, "host": "dfw", "lng": -97.412, "name": "Norman"}, {"lat": 57.133, "distance": 8104.30880367354, "host": "lhr", "lng": -2.1, "name": "Scotland"}, {"lat": 53.133, "distance": 9403.823995624654, "host": "fra", "lng": 23.15, "name": "Bia\u0142ystok"}, {"lat": 26.524, "distance": 4146.345159749557, "host": "mia", "lng": -80.069, "name": "Boynton Beach"}, {"lat": 35.897, "distance": 10724.445534984938, "host": "fra", "lng": 14.461, "name": "Birkirkara"}, {"lat": 40.826, "distance": 4129.552890547486, "host": "ewr", "lng": -74.108, "name": "Rutherford"}, {"lat": 30.756, "distance": 3220.512441224059, "host": "atl", "lng": -88.272, "name": "Semmes"}, {"lat": 43.656, "distance": 3655.774153267464, "host": "yyz", "lng": -79.363, "name": "Toronto"}, {"lat": 35.112, "distance": 3716.4336157345397, "host": "dca", "lng": -80.762, "name": "Charlotte"}, {"lat": 19.054, "distance": 3130.2857036171636, "host": "dfw", "lng": -98.228, "name": "Heroica Puebla de Zaragoza"}, {"lat": 36.733, "distance": 11428.732577616987, "host": "vie", "lng": 34.644, "name": "UNKNOWN"}, {"lat": 50.982, "distance": 1611.1668088775596, "host": "sea", "lng": -114.1, "name": "Calgary"}, {"lat": 35.328, "distance": 3710.88033878825, "host": "atl", "lng": -80.746, "name": "Charlotte"}, {"lat": 25.939, "distance": 4164.606144193893, "host": "mia", "lng": -80.214, "name": "Miami"}, {"lat": 46.28, "distance": 9833.527836266754, "host": "vie", "lng": 16.394, "name": "Donji Ku\u0107an"}, {"lat": 12.933, "distance": 13963.358434140535, "host": "mxp", "lng": 79.133, "name": "Vellore"}, {"lat": 31.5, "distance": 11982.182088712454, "host": "lhr", "lng": 34.75, "name": "\u05e8\u05d0\u05e9\u05d5\u05df \u05dc\u05e6\u05d9\u05d5\u05df"}, {"lat": 10.814, "distance": 12603.217612049193, "host": "nrt", "lng": 106.644, "name": "H\u1ed3 Ch\u00ed Minh"}, {"lat": 53, "distance": 8474.140714376623, "host": "lhr", "lng": -1.133, "name": "Daybrook"},